{"type":"FeatureCollection","features":[{"type":"Feature","id":"46946","geometry":{"type":"Point","coordinates":[-0.16073395311832428,52.869422912597656]},"properties":{"OrganisationCode":"C83036","OrganisationType":"GP practice","SubType":"UNKNOWN","OrganisationName":"Gosberton Medical Centre","OrganisationStatus":"Visible","IsPimsManaged":"False","Address1":"Lowgate","Address2":"Gosberton","Address3":"Spalding","City":"Lincs","Postcode":"PE11 4NL"}},{"type":"Feature","id":"46947","geometry":{"type":"Point","coordinates":[-1.6992257833480835,54.86960220336914]},"properties":{"OrganisationCode":"A83023","OrganisationType":"GP practice","SubType":"UNKNOWN","OrganisationName":"Stanley Medical Group","OrganisationStatus":"Visible","IsPimsManaged":"False","Address1":"Stanley Primary Care Centre","Address2":"Clifford Road","Address3":"Stanley","City":"Stanley","County":"Durham","Postcode":"DH9 0AB"}},{"type":"Feature","id":"46948","geometry":{"type":"Point","coordinates":[-2.4934537410736084,54.57780456542969]},"properties":{"OrganisationCode":"A82006","OrganisationType":"GP practice","SubType":"UNKNOWN","OrganisationName":"Appleby Medical Practice","OrganisationStatus":"Visible","IsPimsManaged":"False","Address1":"The Riverside Building","Address2":"Chapel Street","Address3":"Appleby in Westmorland","Postcode":"CA16 6QR"}},{"type":"Feature","id":"46949","geometry":{"type":"Point","coordinates":[-1.3973627090454102,53.25698471069336]},"properties":{"OrganisationCode":"C81649","OrganisationType":"GP practice","SubType":"UNKNOWN","OrganisationName":"Calow & Brimington Practice","OrganisationStatus":"Visible","IsPimsManaged":"False","Address1":"Brimington Medical Centre","Address2":"Foljambe Road","Address3":"Brimington","City":"Chesterfield","County":"Derbyshire","Postcode":"S43 1DD"}},{"type":"Feature","id":"46950","geometry":{"type":"Point","coordinates":[-1.373095154762268,54.899810791015625]},"properties":{"OrganisationCode":"A89005","OrganisationType":"GP practice","SubType":"UNKNOWN","OrganisationName":"Villette Surgery","OrganisationStatus":"Visible","IsPimsManaged":"False","Address1":"Suffolk Street","Address2":"Hendon","Address3":"Sunderland","Postcode":"SR2 8AX"}},{"type":"Feature","id":"46951","geometry":{"type":"Point","coordinates":[-0.10649209469556808,51.4748649597168]},"properties":{"OrganisationCode":"G85135","OrganisationType":"GP practice","SubType":"UNKNOWN","OrganisationName":"The Iveagh Surgery","OrganisationStatus":"Visible","IsPimsManaged":"False","Address1":"Akerman Health Centre","Address2":"60 Patmos Road","City":"London","Postcode":"SW9 6AF"}},{"type":"Feature","id":"46952","geometry":{"type":"Point","coordinates":[-0.10558664053678513,51.427188873291016]},"properties":{"OrganisationCode":"G85047","OrganisationType":"GP practice","SubType":"UNKNOWN","OrganisationName":"Knights Hill Surgery","OrganisationStatus":"Visible","IsPimsManaged":"False","Address1":"130 Knights Hill","Address2":"LONDON","Postcode":"SE27 0SR"}},{"type":"Feature","id":"46953","geometry":{"type":"Point","coordinates":[-2.079831838607788,53.49308395385742]},"properties":{"OrganisationCode":"P89609","OrganisationType":"GP practice","SubType":"UNKNOWN","OrganisationName":"Stamford House","OrganisationStatus":"Visible","IsPimsManaged":"False","Address1":"2 Princess Street","Address2":"Ashton under Lyne","Address3":"lancs","Postcode":"OL6 9QH"}},{"type":"Feature","id":"46954","geometry":{"type":"Point","coordinates":[1.1955149173736572,52.68146896362305]},"properties":{"OrganisationCode":"D82024","OrganisationType":"GP practice","SubType":"UNKNOWN","OrganisationName":"The Taverham Partnership","OrganisationStatus":"Visible","IsPimsManaged":"False","Address1":"Taverham Surgery","Address2":"Sandy Lane","Address3":"Taverham","City":"Norwich","Postcode":"NR8 6JR"}},{"type":"Feature","id":"46955","geometry":{"type":"Point","coordinates":[-1.7598224878311157,52.50136184692383]},"properties":{"OrganisationCode":"M89026","OrganisationType":"GP practice","SubType":"UNKNOWN","OrganisationName":"The Castle Practice","OrganisationStatus":"Visible","IsPimsManaged":"False","Address1":"2 Hawthorne Road","Address2":"Castle Bromwich","Address3":"Solihull","Postcode":"B36 0HH"}},{"type":"Feature","id":"46956","geometry":{"type":"Point","coordinates":[-2.735184669494629,54.94234085083008]},"properties":{"OrganisationCode":"A82012","OrganisationType":"GP practice","SubType":"UNKNOWN","OrganisationName":"Brampton Medical Practice","OrganisationStatus":"Visible","IsPimsManaged":"False","Address1":"4 Market Place","City":"Brampton","County":"Cumbria","Postcode":"CA8 1NL"}},{"type":"Feature","id":"46957","geometry":{"type":"Point","coordinates":[-0.9785642027854919,50.85084915161133]},"properties":{"OrganisationCode":"J82041","OrganisationType":"GP practice","SubType":"UNKNOWN","OrganisationName":"Staunton Surgery","OrganisationStatus":"Visible","IsPimsManaged":"False","Address1":"Havant Health Centre","Address2":"Civic Centre Way","Address3":"Havant","Postcode":"PO9 2AT"}},{"type":"Feature","id":"46958","geometry":{"type":"Point","coordinates":[-2.2453229427337646,52.38807678222656]},"properties":{"OrganisationCode":"M81010","OrganisationType":"GP practice","SubType":"UNKNOWN","OrganisationName":"Forest Glades Medical Centre","OrganisationStatus":"Visible","IsPimsManaged":"False","Address1":"Bromsgrove Street","Address2":"Kidderminster","Postcode":"DY10 1PE"}},{"type":"Feature","id":"46959","geometry":{"type":"Point","coordinates":[0.4920511245727539,51.174072265625]},"properties":{"OrganisationCode":"G82215","OrganisationType":"GP practice","SubType":"UNKNOWN","OrganisationName":"Marden Medical Centre","OrganisationStatus":"Visible","IsPimsManaged":"False","Address1":"Church Green","Address2":"Marden","Address3":"Tonbridge","City":"Kent","Postcode":"TN12 9HP"}},{"type":"Feature","id":"46960","geometry":{"type":"Point","coordinates":[-1.4351202249526978,50.92229461669922]},"properties":{"OrganisationCode":"J82203","OrganisationType":"GP practice","SubType":"UNKNOWN","OrganisationName":"Regents Park Surgery","OrganisationStatus":"Visible","IsPimsManaged":"False","Address1":"Park Street","Address2":"Shirley","Address3":"Southampton","Postcode":"SO16 4RJ"}},{"type":"Feature","id":"46961","geometry":{"type":"Point","coordinates":[0.2275065928697586,51.91503143310547]},"properties":{"OrganisationCode":"F81111","OrganisationType":"GP practice","SubType":"UNKNOWN","OrganisationName":"Elsenham Surgery","OrganisationStatus":"Visible","IsPimsManaged":"False","Address1":"Station Road","Address2":"Elsenham","Address3":"Bishop's Strotford","City":"Herts","Postcode":"CM22 6LA"}},{"type":"Feature","id":"46962","geometry":{"type":"Point","coordinates":[-3.998157262802124,50.73837661743164]},"properties":{"OrganisationCode":"L83087","OrganisationType":"GP practice","SubType":"UNKNOWN","OrganisationName":"Okehampton Medical Centre","OrganisationStatus":"Visible","IsPimsManaged":"False","Address1":"East Street","Address2":"Okehampton","Address3":"Devon","Postcode":"EX20 1AY"}},{"type":"Feature","id":"46963","geometry":{"type":"Point","coordinates":[-0.004795914515852928,51.46238708496094]},"properties":{"OrganisationCode":"G85003","OrganisationType":"GP practice","SubType":"UNKNOWN","OrganisationName":"Belmont Hill Surgery","OrganisationStatus":"Visible","IsPimsManaged":"False","Address1":"36 Belmont Hill","Address2":"London","Postcode":"SE13 5AY"}},{"type":"Feature","id":"46964","geometry":{"type":"Point","coordinates":[-2.427070379257202,52.036033630371094]},"properties":{"OrganisationCode":"M81621","OrganisationType":"GP practice","SubType":"UNKNOWN","OrganisationName":"Ledbury Market Surgery","OrganisationStatus":"Visible","IsPimsManaged":"False","Address1":"Market Street","Address2":"Ledbury","Address3":"Herefordshire","Postcode":"HR8 2AQ"}},{"type":"Feature","id":"46965","geometry":{"type":"Point","coordinates":[-1.9528818130493164,52.42607879638672]},"properties":{"OrganisationCode":"M85163","OrganisationType":"GP practice","SubType":"UNKNOWN","OrganisationName":"Griffins Brook Medical Centre","OrganisationStatus":"Visible","IsPimsManaged":"False","Address1":"119 Griffins Brook Lane","Address2":"Bournville","Address3":"Birmingham","City":"UK","County":"West Midlands","Postcode":"B30 1QN"}},{"type":"Feature","id":"46966","geometry":{"type":"Point","coordinates":[0.5943002700805664,51.211421966552734]},"properties":{"OrganisationCode":"G82229","OrganisationType":"GP practice","SubType":"UNKNOWN","OrganisationName":"Sutton Valence Surgery","OrganisationStatus":"Visible","IsPimsManaged":"False","Address1":"South Lane","Address2":"Sutton Valence","City":"Maidstone","County":"Kent","Postcode":"ME17 3BD"}},{"type":"Feature","id":"46967","geometry":{"type":"Point","coordinates":[-0.07729282975196838,51.45010757446289]},"properties":{"OrganisationCode":"G85091","OrganisationType":"GP practice","SubType":"UNKNOWN","OrganisationName":"306 Medical Centre","OrganisationStatus":"Visible","IsPimsManaged":"False","Address1":"306 LORDSHIP LANE","Address2":"LONDON","Postcode":"SE22 8LY"}},{"type":"Feature","id":"46968","geometry":{"type":"Point","coordinates":[-0.030102817341685295,51.8099250793457]},"properties":{"OrganisationCode":"E82092","OrganisationType":"GP practice","SubType":"UNKNOWN","OrganisationName":"Dolphin House Surgery","OrganisationStatus":"Visible","IsPimsManaged":"False","Postcode":"SG12 9HJ"}},{"type":"Feature","id":"46969","geometry":{"type":"Point","coordinates":[-2.341562271118164,53.61396408081055]},"properties":{"OrganisationCode":"P83012","OrganisationType":"GP practice","SubType":"UNKNOWN","OrganisationName":"Tottington Medical Practice","OrganisationStatus":"Visible","IsPimsManaged":"False","Address1":"16 Market Street","Address2":"Tottington","City":"Bury","County":"Lancashire","Postcode":"BL8 4AD"}},{"type":"Feature","id":"46970","geometry":{"type":"Point","coordinates":[-0.035119786858558655,51.59418869018555]},"properties":{"OrganisationCode":"F86708","OrganisationType":"GP practice","SubType":"UNKNOWN","OrganisationName":"Claremont Medical Centre","OrganisationStatus":"Visible","IsPimsManaged":"False","Address1":"Claremont Medical Centre","Address2":"29-31 Claremont Road","Address3":"Walthanstow","City":"London","Postcode":"E17 5RJ"}},{"type":"Feature","id":"46971","geometry":{"type":"Point","coordinates":[-0.06821369379758835,51.39240646362305]},"properties":{"OrganisationCode":"H83025","OrganisationType":"GP practice","SubType":"UNKNOWN","OrganisationName":"Woodside Group Practice","OrganisationStatus":"Visible","IsPimsManaged":"False","Address1":"3 Enmore Road","Address2":"South Norwood","City":"London","Postcode":"SE25 5NT"}},{"type":"Feature","id":"46972","geometry":{"type":"Point","coordinates":[-2.1578619480133057,53.3995246887207]},"properties":{"OrganisationCode":"P88604","OrganisationType":"GP practice","SubType":"UNKNOWN","OrganisationName":"Lowfield Surgery","OrganisationStatus":"Visible","IsPimsManaged":"False","Address1":"Lowfield Surgery","Address2":"5 Lowfield Road","Address3":"Shaw Heath","City":"Stockport","County":"Cheshire","Postcode":"SK2 6RW"}},{"type":"Feature","id":"46973","geometry":{"type":"Point","coordinates":[1.3392727375030518,51.275272369384766]},"properties":{"OrganisationCode":"G82148","OrganisationType":"GP practice","SubType":"UNKNOWN","OrganisationName":"The Surgery","OrganisationStatus":"Visible","IsPimsManaged":"False","Address1":"The Surgery","Address2":"7 The Butchery","Address3":"Sandwich","City":"Kent","Postcode":"CT13 9DL"}},{"type":"Feature","id":"46974","geometry":{"type":"Point","coordinates":[-2.4289939403533936,53.59031295776367]},"properties":{"OrganisationCode":"P82617","OrganisationType":"GP practice","SubType":"UNKNOWN","OrganisationName":"Astley-Dale Branch","OrganisationStatus":"Visible","IsPimsManaged":"False","Address1":"Waters Meeting health Centre","Address2":"Waters Meeting Road","Address3":"Bolton","Postcode":"BL1 8TT"}},{"type":"Feature","id":"46975","geometry":{"type":"Point","coordinates":[-0.10649209469556808,51.4748649597168]},"properties":{"OrganisationCode":"G85078","OrganisationType":"GP practice","SubType":"UNKNOWN","OrganisationName":"Myatts Field Medical Practice","OrganisationStatus":"Visible","IsPimsManaged":"False","Address1":"Akerman Health Centre","Address2":"60 Patmos Road","City":"London","Postcode":"SW9 6AF"}},{"type":"Feature","id":"46976","geometry":{"type":"Point","coordinates":[-2.2770533561706543,53.457733154296875]},"properties":{"OrganisationCode":"P91027","OrganisationType":"GP practice","SubType":"UNKNOWN","OrganisationName":"THE ALI MEDICAL PRACTICE","OrganisationStatus":"Visible","IsPimsManaged":"False","Address1":"Seymour Grove Health Centre","Address2":"70 Seymour Grove","Address3":"Old Trafford","City":"Manchester","Postcode":"M16 0LW"}},{"type":"Feature","id":"46977","geometry":{"type":"Point","coordinates":[0.2456180304288864,50.930843353271484]},"properties":{"OrganisationCode":"G81097","OrganisationType":"GP practice","SubType":"UNKNOWN","OrganisationName":"Manor Oak Surgery","OrganisationStatus":"Visible","IsPimsManaged":"False","Address1":"Horebeech Lane","Address2":"Horam","Postcode":"TN21 0DS"}},{"type":"Feature","id":"46978","geometry":{"type":"Point","coordinates":[-0.860063910484314,51.10784149169922]},"properties":{"OrganisationCode":"J82184","OrganisationType":"GP practice","SubType":"UNKNOWN","OrganisationName":"Pinehill Surgery","OrganisationStatus":"Visible","IsPimsManaged":"False","Address1":"Pinehill Road","Address2":"Bordon","Address3":"Hampshire","Postcode":"GU35 0BS"}},{"type":"Feature","id":"46979","geometry":{"type":"Point","coordinates":[-2.284788131713867,53.488277435302734]},"properties":{"OrganisationCode":"P87015","OrganisationType":"GP practice","SubType":"UNKNOWN","OrganisationName":"PENDLETON MEDICAL CENTRE","OrganisationStatus":"Visible","IsPimsManaged":"False","Address1":"PENDLETON GATEWAY","Address2":"(1ST FLOOR)","Address3":"1 BROADWALK","City":"SALFORD","Postcode":"M6 5FX"}},{"type":"Feature","id":"46980","geometry":{"type":"Point","coordinates":[-0.09395956248044968,51.56818389892578]},"properties":{"OrganisationCode":"F84653","OrganisationType":"GP practice","SubType":"UNKNOWN","OrganisationName":"DR V N PATEL","OrganisationStatus":"Visible","IsPimsManaged":"False","Address1":"\t","Address2":"John Scott Health Centre","Address3":"Green Lanes","Postcode":"N4 2NU"}},{"type":"Feature","id":"46981","geometry":{"type":"Point","coordinates":[-0.21074382960796356,51.38657760620117]},"properties":{"OrganisationCode":"H85076","OrganisationType":"GP practice","SubType":"UNKNOWN","OrganisationName":"Stonecot Surgery","OrganisationStatus":"Visible","IsPimsManaged":"False","Address1":"115 Epsom Road","Address3":"Sutton","City":"Surrey","Postcode":"SM3 9EY"}},{"type":"Feature","id":"46982","geometry":{"type":"Point","coordinates":[0.05860292166471481,51.43161392211914]},"properties":{"OrganisationCode":"G83003","OrganisationType":"GP practice","SubType":"UNKNOWN","OrganisationName":"ColdharbourHill PMS","OrganisationStatus":"Visible","IsPimsManaged":"False","Address1":"79 William Barefoot Drive","Address2":"London","Postcode":"SE9 3JD"}},{"type":"Feature","id":"46983","geometry":{"type":"Point","coordinates":[-1.9190075397491455,53.25398635864258]},"properties":{"OrganisationCode":"C81034","OrganisationType":"GP practice","SubType":"UNKNOWN","OrganisationName":"STEWART MEDICAL CENTRE","OrganisationStatus":"Visible","IsPimsManaged":"False","Address1":"15 Hartington Road","Address2":"Buxton","Address3":"Derbyshire","Postcode":"SK17 6JP"}},{"type":"Feature","id":"46984","geometry":{"type":"Point","coordinates":[-0.09729694575071335,51.48820495605469]},"properties":{"OrganisationCode":"G85095","OrganisationType":"GP practice","SubType":"UNKNOWN","OrganisationName":"Manor Place Surgery","OrganisationStatus":"Visible","IsPimsManaged":"False","Address1":"1 Manor Place","Address2":"London","City":"London","Postcode":"SE17 3BD"}},{"type":"Feature","id":"46985","geometry":{"type":"Point","coordinates":[-1.5266821384429932,52.26241683959961]},"properties":{"OrganisationCode":"M84064","OrganisationType":"GP practice","SubType":"UNKNOWN","OrganisationName":"Whitnash Medical Centre","OrganisationStatus":"Visible","IsPimsManaged":"False","Address1":"110 Coppice Rd","Address2":"Whitnash","Address3":"Warwickshire","Postcode":"CV31 2LT"}},{"type":"Feature","id":"46986","geometry":{"type":"Point","coordinates":[-2.098335027694702,53.02116012573242]},"properties":{"OrganisationCode":"M83011","OrganisationType":"GP practice","SubType":"UNKNOWN","OrganisationName":"Werrington Village Surgery","OrganisationStatus":"Visible","IsPimsManaged":"False","Address1":"Ash Bank Road","Address2":"Werrington","City":"Stoke on Trent","Postcode":"ST9 0JS"}},{"type":"Feature","id":"46987","geometry":{"type":"Point","coordinates":[-1.35971999168396,52.96643829345703]},"properties":{"OrganisationCode":"C81046","OrganisationType":"GP practice","SubType":"UNKNOWN","OrganisationName":"West Hallam Medical Centre","OrganisationStatus":"Visible","IsPimsManaged":"False","Postcode":"DE7 6GR"}},{"type":"Feature","id":"46988","geometry":{"type":"Point","coordinates":[-2.7074053287506104,53.43528747558594]},"properties":{"OrganisationCode":"N83001","OrganisationType":"GP practice","SubType":"UNKNOWN","OrganisationName":"Rainbow Medical Centre","OrganisationStatus":"Visible","IsPimsManaged":"False","Address1":"333 Robins Lane","Address2":"Sutton","Address3":"St Helens","City":"Merseyside","Postcode":"WA9 3PN"}},{"type":"Feature","id":"46989","geometry":{"type":"Point","coordinates":[-0.2626751959323883,51.49526596069336]},"properties":{"OrganisationCode":"E85066","OrganisationType":"GP practice","SubType":"UNKNOWN","OrganisationName":"The Bedford Park Surgery ","OrganisationStatus":"Visible","IsPimsManaged":"False","Address1":"55 South Parade","Address2":"Chiswick","Address3":"London","Postcode":"W4 5LH"}},{"type":"Feature","id":"46990","geometry":{"type":"Point","coordinates":[0.792823076248169,51.41551208496094]},"properties":{"OrganisationCode":"Y02506","OrganisationType":"GP practice","SubType":"UNKNOWN","OrganisationName":"Sheppey NHS Healthcare Centre","OrganisationStatus":"Visible","IsPimsManaged":"False","Address1":"Sheppey Community Hospital","Address2":"Plover Road","Address3":"Minster-On-Sea","City":"Sheerness","Postcode":"ME12 3LT"}},{"type":"Feature","id":"46991","geometry":{"type":"Point","coordinates":[-2.5183942317962646,51.612186431884766]},"properties":{"OrganisationCode":"L81106","OrganisationType":"GP practice","SubType":"UNKNOWN","OrganisationName":"Dr PP Male & Partners","OrganisationStatus":"Visible","IsPimsManaged":"False","Address1":"Eastland Road","Address2":"Thornbury","Address3":"Bristol","City":"Avon","Postcode":"BS35 1DP"}},{"type":"Feature","id":"46992","geometry":{"type":"Point","coordinates":[-0.3105551600456238,51.48607635498047]},"properties":{"OrganisationCode":"E85732","OrganisationType":"GP practice","SubType":"UNKNOWN","OrganisationName":"Manor Practice","OrganisationStatus":"Visible","IsPimsManaged":"False","Address1":"Brentford Health Centre","Address2":"Boston Manor Road","Address3":"Middlesex,","Postcode":"TW8 8DS"}},{"type":"Feature","id":"46993","geometry":{"type":"Point","coordinates":[-0.11020480841398239,51.524383544921875]},"properties":{"OrganisationCode":"F83624","OrganisationType":"GP practice","SubType":"UNKNOWN","OrganisationName":"Clerkenwell Medical Practice","OrganisationStatus":"Visible","IsPimsManaged":"False","Address1":"Finsbury Health Centre","Address2":"Pine Street","Address3":"London","Postcode":"EC1R 0LP"}},{"type":"Feature","id":"46994","geometry":{"type":"Point","coordinates":[-1.8906127214431763,50.825592041015625]},"properties":{"OrganisationCode":"J81022","OrganisationType":"GP practice","SubType":"UNKNOWN","OrganisationName":"West Moors Group Practice","OrganisationStatus":"Visible","IsPimsManaged":"False","Address1":"175 Station Road","Address2":"West Moors","Address3":"Ferndown","City":"Dorset","Postcode":"BH22 0HX"}},{"type":"Feature","id":"46995","geometry":{"type":"Point","coordinates":[-1.1486663818359375,50.79286193847656]},"properties":{"OrganisationCode":"J82084","OrganisationType":"GP practice","SubType":"UNKNOWN","OrganisationName":"Bury Road Surgery","OrganisationStatus":"Visible","IsPimsManaged":"False","Address1":"Gosport War Memorial Hospital","Address2":"Bury Road","City":"Gosport","Postcode":"PO12 3PW"}},{"type":"Feature","id":"46996","geometry":{"type":"Point","coordinates":[-2.980492115020752,53.39739990234375]},"properties":{"OrganisationCode":"N82082","OrganisationType":"GP practice","SubType":"UNKNOWN","OrganisationName":"ST JAMES HEALTH CENTRE","OrganisationStatus":"Visible","IsPimsManaged":"False","Address1":"29 GREAT GEORGE SQUARE","Postcode":"L1 5DZ"}},{"type":"Feature","id":"46997","geometry":{"type":"Point","coordinates":[0.5617020726203918,51.423492431640625]},"properties":{"OrganisationCode":"G82233","OrganisationType":"GP practice","SubType":"UNKNOWN","OrganisationName":"St Werburgh Practice","OrganisationStatus":"Visible","IsPimsManaged":"False","Address1":"98 Bells Lane","Address2":"Hoo","City":"Rochester","County":"Kent","Postcode":"ME3 9HU"}},{"type":"Feature","id":"46998","geometry":{"type":"Point","coordinates":[-2.7486941814422607,54.323055267333984]},"properties":{"OrganisationCode":"A82025","OrganisationType":"GP practice","SubType":"UNKNOWN","OrganisationName":"Captain French Surgery","OrganisationStatus":"Visible","IsPimsManaged":"False","Address1":"Captain French Lane","Address2":"Kendal","Postcode":"LA9 4HR"}},{"type":"Feature","id":"46999","geometry":{"type":"Point","coordinates":[-2.1372318267822266,52.594120025634766]},"properties":{"OrganisationCode":"M92031","OrganisationType":"GP practice","SubType":"UNKNOWN","OrganisationName":"Drs Passi & Handa","OrganisationStatus":"Visible","IsPimsManaged":"False","Address1":"Leicester Street Medical Centre","Address2":"Leicester Street","Address3":"Whitmore Reans","City":"Wolverhampton","County":"West Midlands","Postcode":"WV6 0PS"}},{"type":"Feature","id":"47000","geometry":{"type":"Point","coordinates":[-0.5481196641921997,52.34524917602539]},"properties":{"OrganisationCode":"K83030","OrganisationType":"GP practice","SubType":"UNKNOWN","OrganisationName":"The Cottons Medical Centre","OrganisationStatus":"Visible","IsPimsManaged":"False","Address1":"Meadow Lane","Address2":"Raunds","Address3":"Northants","Postcode":"NN9 6UA"}},{"type":"Feature","id":"47001","geometry":{"type":"Point","coordinates":[-0.3668002188205719,51.44371032714844]},"properties":{"OrganisationCode":"H84625","OrganisationType":"GP practice","SubType":"UNKNOWN","OrganisationName":"Dr Kudra ","OrganisationStatus":"Visible","IsPimsManaged":"False","Address1":"19 Powdermill Lane","Address2":"Whitton","Address3":"Twickenham","Postcode":"TW2 6EE"}},{"type":"Feature","id":"47002","geometry":{"type":"Point","coordinates":[-1.3448922634124756,52.56721496582031]},"properties":{"OrganisationCode":"C82061","OrganisationType":"GP practice","SubType":"UNKNOWN","OrganisationName":"Barwell Medical Centre","OrganisationStatus":"Visible","IsPimsManaged":"False","Address1":"Jersey Way","Address2":"Barwell","Address3":"Leicestershire","Postcode":"LE9 8HA"}},{"type":"Feature","id":"47003","geometry":{"type":"Point","coordinates":[-1.7821321487426758,52.458251953125]},"properties":{"OrganisationCode":"M85048","OrganisationType":"GP practice","SubType":"UNKNOWN","OrganisationName":"Church Road Surgery","OrganisationStatus":"Visible","IsPimsManaged":"False","Address1":"90 Church Road","Address2":"Sheldon","City":"Birmingham","Postcode":"B26 3TP"}},{"type":"Feature","id":"47004","geometry":{"type":"Point","coordinates":[-0.35116446018218994,53.75860595703125]},"properties":{"OrganisationCode":"B81054","OrganisationType":"GP practice","SubType":"UNKNOWN","OrganisationName":"Clifton House Medical Centre","OrganisationStatus":"Visible","IsPimsManaged":"False","Address1":"263-265 Beverley Road","City":"Hull","County":"North Humberside","Postcode":"HU5 2ST"}},{"type":"Feature","id":"47005","geometry":{"type":"Point","coordinates":[0.05961345136165619,51.454078674316406]},"properties":{"OrganisationCode":"G83034","OrganisationType":"GP practice","SubType":"UNKNOWN","OrganisationName":"ELTHAM PARK SURGERY","OrganisationStatus":"Visible","IsPimsManaged":"False","Address1":"46 WESTMOUNT ROAD","Address2":"ELTHAM","City":"London","Postcode":"SE9 1JE"}},{"type":"Feature","id":"47006","geometry":{"type":"Point","coordinates":[-1.943261981010437,50.72760772705078]},"properties":{"OrganisationCode":"J81012","OrganisationType":"GP practice","SubType":"UNKNOWN","OrganisationName":"Parkstone Health Centre","OrganisationStatus":"Visible","IsPimsManaged":"False","Address1":"Mansfield Road","Address2":"Parkstone","Address3":"Poole","City":"Dorset","Postcode":"BH14 0DJ"}},{"type":"Feature","id":"47007","geometry":{"type":"Point","coordinates":[-2.6353068351745605,53.445579528808594]},"properties":{"OrganisationCode":"N83628","OrganisationType":"GP practice","SubType":"UNKNOWN","OrganisationName":"Newton Cottage Practice ","OrganisationStatus":"Visible","IsPimsManaged":"False","Address1":"Newton Community Hospital","Address2":"Bradlegh Road","Address3":"Newton Le Willows","City":"Merseyside","Postcode":"WA12 8RB"}},{"type":"Feature","id":"47008","geometry":{"type":"Point","coordinates":[-2.438113212585449,52.714752197265625]},"properties":{"OrganisationCode":"M82012","OrganisationType":"GP practice","SubType":"UNKNOWN","OrganisationName":"DONNINGTON MEDICAL PRACTICE","OrganisationStatus":"Visible","IsPimsManaged":"False","Address1":"The Health Centre","Address2":"Wrekin Drive","Address3":"Donnington","City":"Telford","County":"Shropshire","Postcode":"TF2 8EA"}},{"type":"Feature","id":"47009","geometry":{"type":"Point","coordinates":[-0.037319354712963104,50.801937103271484]},"properties":{"OrganisationCode":"G81076","OrganisationType":"GP practice","SubType":"UNKNOWN","OrganisationName":"Saltdean & Rottingdean Medical Practice","OrganisationStatus":"Visible","IsPimsManaged":"False","Address1":"Grand Ocean","Address2":"Longridge Avenue","Address3":"Saltdean","City":"Brighton","Postcode":"BN2 8BU"}},{"type":"Feature","id":"47010","geometry":{"type":"Point","coordinates":[0.09355941414833069,51.53531265258789]},"properties":{"OrganisationCode":"F82650","OrganisationType":"GP practice","SubType":"UNKNOWN","OrganisationName":"Ripple Road Medical Centre","OrganisationStatus":"Visible","IsPimsManaged":"False","Address1":"364-370 Ripple Road","Address2":"Barking","Postcode":"IG11 9RS"}},{"type":"Feature","id":"47011","geometry":{"type":"Point","coordinates":[-0.11198720335960388,51.62063217163086]},"properties":{"OrganisationCode":"F85072","OrganisationType":"GP practice","SubType":"UNKNOWN","OrganisationName":"Grovelands & Grenoble Medical Centre ","OrganisationStatus":"Visible","IsPimsManaged":"False","Address1":"Main Site:","Address2":"1 Grovelands Road","Address3":"Palmers Green","City":"London","Postcode":"N13 4RJ"}},{"type":"Feature","id":"47012","geometry":{"type":"Point","coordinates":[-0.126491516828537,51.478782653808594]},"properties":{"OrganisationCode":"G85130","OrganisationType":"GP practice","SubType":"UNKNOWN","OrganisationName":"Mawbey Group Practice","OrganisationStatus":"Visible","IsPimsManaged":"False","Address1":"Mawbey Brough Health Centre","Address2":"39 Wilcox Close","Address3":"London","Postcode":"SW8 2UD"}},{"type":"Feature","id":"47013","geometry":{"type":"Point","coordinates":[0.7344812750816345,51.5463981628418]},"properties":{"OrganisationCode":"F81176","OrganisationType":"GP practice","SubType":"UNKNOWN","OrganisationName":"North Avenue Surgery","OrganisationStatus":"Visible","IsPimsManaged":"False","Address1":"332 North Avenue","Address2":"Southend-on-Sea","Address3":"Essex","Postcode":"SS2 4EQ"}},{"type":"Feature","id":"47014","geometry":{"type":"Point","coordinates":[-0.34292539954185486,51.58634948730469]},"properties":{"OrganisationCode":"E84681","OrganisationType":"GP practice","SubType":"UNKNOWN","OrganisationName":"SAVITA MEDICAL CENTRE","OrganisationStatus":"Visible","IsPimsManaged":"False","Address1":"48, HARROW VIEW","Address2":"HARROW","Address3":"MIDDLESEX","City":"HARROW","County":"Middlesex","Postcode":"HA1 1RQ"}},{"type":"Feature","id":"47015","geometry":{"type":"Point","coordinates":[-1.7547346353530884,51.5555305480957]},"properties":{"OrganisationCode":"J83038","OrganisationType":"GP practice","SubType":"UNKNOWN","OrganisationName":"Kingswood Surgery","OrganisationStatus":"Visible","IsPimsManaged":"False","Address1":"Kingswood Avenue","City":"Park North","County":"Swindon","Postcode":"SN3 2RJ"}},{"type":"Feature","id":"47016","geometry":{"type":"Point","coordinates":[-0.5970696210861206,52.28290557861328]},"properties":{"OrganisationCode":"K83044","OrganisationType":"GP practice","SubType":"UNKNOWN","OrganisationName":"Dr Hogg &Partners","OrganisationStatus":"Visible","IsPimsManaged":"False","Address1":"Wymington Road","Address2":"Rushden","Address3":"Northants","Postcode":"NN10 9EB"}},{"type":"Feature","id":"47017","geometry":{"type":"Point","coordinates":[-3.516357183456421,50.38859939575195]},"properties":{"OrganisationCode":"L83114","OrganisationType":"GP practice","SubType":"UNKNOWN","OrganisationName":"Greenswood Medical","OrganisationStatus":"Visible","IsPimsManaged":"False","Address1":"1 Greenswood Road","City":"Brixham","County":"Devon","Postcode":"TQ5 9HN"}},{"type":"Feature","id":"47018","geometry":{"type":"Point","coordinates":[-1.4373688697814941,54.9872932434082]},"properties":{"OrganisationCode":"A88008","OrganisationType":"GP practice","SubType":"UNKNOWN","OrganisationName":"Trinity Medical Centre","OrganisationStatus":"Visible","IsPimsManaged":"False","Address1":"New George Street","Address2":"South Shields","County":"Tyne and Wear","Postcode":"NE33 5DU"}},{"type":"Feature","id":"47019","geometry":{"type":"Point","coordinates":[-1.6982994079589844,55.40966033935547]},"properties":{"OrganisationCode":"A84021","OrganisationType":"GP practice","SubType":"UNKNOWN","OrganisationName":"Infirmary Drive Medical Group","OrganisationStatus":"Visible","IsPimsManaged":"False","Address1":"The Consulting Rooms","Address2":"Infirmary Drive","Address3":"Alnwick","City":"Northumberland","Postcode":"NE66 2NR"}},{"type":"Feature","id":"47020","geometry":{"type":"Point","coordinates":[1.1211161613464355,52.571937561035156]},"properties":{"OrganisationCode":"D82045","OrganisationType":"GP practice","SubType":"UNKNOWN","OrganisationName":"Wymondham Medical Partnership","OrganisationStatus":"Visible","IsPimsManaged":"False","Address1":"Postmill Close","County":"Wymondham","Postcode":"NR18 0RF"}},{"type":"Feature","id":"47021","geometry":{"type":"Point","coordinates":[-1.9220037460327148,52.42336654663086]},"properties":{"OrganisationCode":"M85131","OrganisationType":"GP practice","SubType":"UNKNOWN","OrganisationName":"ASHTREE MEDICAL CENTRE","OrganisationStatus":"Visible","IsPimsManaged":"False","Address1":"1536 Pershore Road","Address2":"Stirchley","Address3":"Birmingham","Postcode":"B30 2NW"}},{"type":"Feature","id":"47022","geometry":{"type":"Point","coordinates":[-1.2664388418197632,50.882686614990234]},"properties":{"OrganisationCode":"J82023","OrganisationType":"GP practice","SubType":"UNKNOWN","OrganisationName":"Whiteley Surgery","OrganisationStatus":"Visible","IsPimsManaged":"False","Address1":"Yew Tree Drive","Address2":"Whiteley","City":"Fareham","County":"Hampshire","Postcode":"PO15 7LB"}},{"type":"Feature","id":"47023","geometry":{"type":"Point","coordinates":[-4.060037136077881,51.08175277709961]},"properties":{"OrganisationCode":"L83139","OrganisationType":"GP practice","SubType":"UNKNOWN","OrganisationName":"Boutport Medical Centre","OrganisationStatus":"Visible","IsPimsManaged":"False","Address1":"110 Boutport Street","City":"Barnstaple","County":"Devon","Postcode":"EX31 1TD"}},{"type":"Feature","id":"47024","geometry":{"type":"Point","coordinates":[-0.3604355752468109,51.4607048034668]},"properties":{"OrganisationCode":"E85600","OrganisationType":"GP practice","SubType":"UNKNOWN","OrganisationName":"The Willow Practice","OrganisationStatus":"Visible","IsPimsManaged":"False","Address1":"Maswell Park Health Centre","Address2":"Hounslow Avenue","Address3":"Hounslow","City":"Middlesex","Postcode":"TW3 2DY"}},{"type":"Feature","id":"47025","geometry":{"type":"Point","coordinates":[-1.4967321157455444,53.72934341430664]},"properties":{"OrganisationCode":"B86020","OrganisationType":"GP practice","SubType":"UNKNOWN","OrganisationName":"Church Farm Close Medical Practice","OrganisationStatus":"Visible","IsPimsManaged":"False","Address1":"Lofthouse Surgery","Address2":"2 Church Farm Close","Address3":"Lofthouse","City":"Wakefield","Postcode":"WF3 3SA"}},{"type":"Feature","id":"47026","geometry":{"type":"Point","coordinates":[-0.7531651854515076,51.41698455810547]},"properties":{"OrganisationCode":"K81657","OrganisationType":"GP practice","SubType":"UNKNOWN","OrganisationName":"Dr G.P Nelli & Partners","OrganisationStatus":"Visible","IsPimsManaged":"False","Address1":"Evergreen Practice","Address2":"Skimped Hill Health Centre","Address3":"Market Square","City":"Bracknell","County":"Berkshire","Postcode":"RG12 1LH"}},{"type":"Feature","id":"47027","geometry":{"type":"Point","coordinates":[-2.061598062515259,53.39242172241211]},"properties":{"OrganisationCode":"P88006","OrganisationType":"GP practice","SubType":"UNKNOWN","OrganisationName":"Marple Cottage Surgery","OrganisationStatus":"Visible","IsPimsManaged":"False","Address1":"50 Church Street","Address2":"Marple","Address3":"Stockport","City":"Cheshire","Postcode":"SK6 6BW"}},{"type":"Feature","id":"47028","geometry":{"type":"Point","coordinates":[-2.9156405925750732,53.3889274597168]},"properties":{"OrganisationCode":"N82026","OrganisationType":"GP practice","SubType":"UNKNOWN","OrganisationName":"PENNY LANE SURGERY","OrganisationStatus":"Visible","IsPimsManaged":"False","Address1":"7 SMITHDOWN PLACE","City":"Liverpool","County":"Merseyside","Postcode":"L15 9EH"}},{"type":"Feature","id":"47029","geometry":{"type":"Point","coordinates":[-0.9681196212768555,51.45054244995117]},"properties":{"OrganisationCode":"K81007","OrganisationType":"GP practice","SubType":"UNKNOWN","OrganisationName":"London Street Surgery ","OrganisationStatus":"Visible","IsPimsManaged":"False","Address1":"The Surgery","Address2":"72 London Street","Address3":"Reading","Postcode":"RG1 4SJ"}},{"type":"Feature","id":"47030","geometry":{"type":"Point","coordinates":[-1.1471844911575317,52.94712448120117]},"properties":{"OrganisationCode":"Y02847","OrganisationType":"GP practice","SubType":"UNKNOWN","OrganisationName":"NEMS Platform One Practice","OrganisationStatus":"Visible","IsPimsManaged":"False","Address1":"Station Street","Address2":"Nottingham","Postcode":"NG2 3AJ"}},{"type":"Feature","id":"47031","geometry":{"type":"Point","coordinates":[-1.5791032314300537,52.759761810302734]},"properties":{"OrganisationCode":"C81114","OrganisationType":"GP practice","SubType":"UNKNOWN","OrganisationName":"Gresleydale Healthcare Centre","OrganisationStatus":"Visible","IsPimsManaged":"False","Address1":"Glamorgan Way","Address2":"Church Gresley","Address3":"Swadlincote","City":"Derbyshire","Postcode":"DE11 9JT"}},{"type":"Feature","id":"47032","geometry":{"type":"Point","coordinates":[-2.5141260623931885,53.260093688964844]},"properties":{"OrganisationCode":"N81055","OrganisationType":"GP practice","SubType":"UNKNOWN","OrganisationName":"Watling Medical Practice","OrganisationStatus":"Visible","IsPimsManaged":"False","Address1":"Watling Street Medical Centre","Address2":"Watling Street","Address3":"Northwich","City":"Cheshire","Postcode":"CW9 5EX"}},{"type":"Feature","id":"47033","geometry":{"type":"Point","coordinates":[-0.16700537502765656,51.47402572631836]},"properties":{"OrganisationCode":"H85045","OrganisationType":"GP practice","SubType":"UNKNOWN","OrganisationName":"Bridge Lane Group Practice","OrganisationStatus":"Visible","IsPimsManaged":"False","Address1":"20 Bridge Lane","Address2":"Battersea","City":"London","Postcode":"SW11 3AD"}},{"type":"Feature","id":"47034","geometry":{"type":"Point","coordinates":[-0.9682816863059998,51.44335174560547]},"properties":{"OrganisationCode":"K81101","OrganisationType":"GP practice","SubType":"UNKNOWN","OrganisationName":"Dr P Kumar & Partners","OrganisationStatus":"Visible","IsPimsManaged":"False","Address1":"Milman Road","Address2":"Reading","Address3":"Berkshire","Postcode":"RG2 0AR"}},{"type":"Feature","id":"47035","geometry":{"type":"Point","coordinates":[-0.5011243224143982,51.42841720581055]},"properties":{"OrganisationCode":"H81002","OrganisationType":"GP practice","SubType":"UNKNOWN","OrganisationName":"Knowle Green Medical","OrganisationStatus":"Visible","IsPimsManaged":"False","Address1":"Staines Health Centre","Address2":"Knowle Green","Address3":"Staines","City":"Middlesex","Postcode":"TW18 1XD"}},{"type":"Feature","id":"47036","geometry":{"type":"Point","coordinates":[-1.8766231536865234,50.74644088745117]},"properties":{"OrganisationCode":"J81625","OrganisationType":"GP practice","SubType":"UNKNOWN","OrganisationName":"Denmark Road Medical Centre","OrganisationStatus":"Visible","IsPimsManaged":"False","Address1":"37 Denmark Road","Address2":"Bournemouth","Postcode":"BH9 1PB"}},{"type":"Feature","id":"47037","geometry":{"type":"Point","coordinates":[-0.12516054511070251,51.44099044799805]},"properties":{"OrganisationCode":"G85724","OrganisationType":"GP practice","SubType":"UNKNOWN","OrganisationName":"Edith Cavell Surgery","OrganisationStatus":"Visible","IsPimsManaged":"False","Address1":"Edith Cavell Surgery","Address2":"41 A-C Streatham Hill","Address3":"London","Postcode":"SW2 4TP"}},{"type":"Feature","id":"47038","geometry":{"type":"Point","coordinates":[-1.4503129720687866,52.86711120605469]},"properties":{"OrganisationCode":"C81108","OrganisationType":"GP practice","SubType":"UNKNOWN","OrganisationName":"Dr Black & Partners","OrganisationStatus":"Visible","IsPimsManaged":"False","Address1":"Rowallan Way","Address2":"Chellaston","Address3":"Derby","Postcode":"DE73 5BG"}},{"type":"Feature","id":"47039","geometry":{"type":"Point","coordinates":[-3.5242669582366943,50.7221565246582]},"properties":{"OrganisationCode":"L83058","OrganisationType":"GP practice","SubType":"UNKNOWN","OrganisationName":"Southernhay House Surgery","OrganisationStatus":"Visible","IsPimsManaged":"False","Address1":"30 Barnfield Road","City":"Exeter","County":"Devon","Postcode":"EX1 1RX"}},{"type":"Feature","id":"47040","geometry":{"type":"Point","coordinates":[-0.2645094096660614,50.83701705932617]},"properties":{"OrganisationCode":"H82083","OrganisationType":"GP practice","SubType":"UNKNOWN","OrganisationName":"Northbourne Medical Centre","OrganisationStatus":"Visible","IsPimsManaged":"False","Address1":"Eastern Avenue","Address2":"Shoreham-by-Sea","Address3":"West Sussex","Postcode":"BN43 6PE"}},{"type":"Feature","id":"47041","geometry":{"type":"Point","coordinates":[-1.8188467025756836,52.47719192504883]},"properties":{"OrganisationCode":"Y02893","OrganisationType":"GP practice","SubType":"UNKNOWN","OrganisationName":"IRIDIUM","OrganisationStatus":"Visible","IsPimsManaged":"False","Address1":"Richmond Primary Care Centre","Address2":"299 Bordesley Green East,","Address3":"Stechford","City":"Birmingham","Postcode":"B33 8TA"}},{"type":"Feature","id":"47042","geometry":{"type":"Point","coordinates":[-0.3018395006656647,53.28776550292969]},"properties":{"OrganisationCode":"C83650","OrganisationType":"GP practice","SubType":"UNKNOWN","OrganisationName":"Wragby Surgery","OrganisationStatus":"Visible","IsPimsManaged":"False","Address1":"Old Grammar School Way","Address2":"Wragby","City":"Lincoln","County":"Lincolnshire","Postcode":"LN8 5DA"}},{"type":"Feature","id":"47043","geometry":{"type":"Point","coordinates":[-1.7799034118652344,53.7805290222168]},"properties":{"OrganisationCode":"B83055","OrganisationType":"GP practice","SubType":"UNKNOWN","OrganisationName":"The Ridge Medical Practice","OrganisationStatus":"Visible","IsPimsManaged":"False","Address1":"The Ridge Medical Centre","Address2":"Cousen Road","Address3":"Bradford","Postcode":"BD7 3JX"}},{"type":"Feature","id":"47044","geometry":{"type":"Point","coordinates":[-1.2362637519836426,52.95941925048828]},"properties":{"OrganisationCode":"Y03124","OrganisationType":"GP practice","SubType":"UNKNOWN","OrganisationName":"Grange Farm Medical Centre","OrganisationStatus":"Visible","IsPimsManaged":"False","Address1":"17a Tremayne Road","Address2":"Bilborough","City":"Nottingham","County":"Nottinghamshire","Postcode":"NG8 4HQ"}},{"type":"Feature","id":"47045","geometry":{"type":"Point","coordinates":[-1.2553560733795166,51.75123596191406]},"properties":{"OrganisationCode":"K84605","OrganisationType":"GP practice","SubType":"UNKNOWN","OrganisationName":"King Edward Street Practice","OrganisationStatus":"Visible","IsPimsManaged":"False","Address1":"9 King Edward Street","Address2":"Oxford","Postcode":"OX1 4JA"}},{"type":"Feature","id":"47046","geometry":{"type":"Point","coordinates":[-3.505856990814209,50.72239303588867]},"properties":{"OrganisationCode":"L83084","OrganisationType":"GP practice","SubType":"UNKNOWN","OrganisationName":"South Lawn Medical Practice","OrganisationStatus":"Visible","IsPimsManaged":"False","Address1":"South lawn Terrace","Address2":"Heavitree","Address3":"Exeter","Postcode":"EX1 2RX"}},{"type":"Feature","id":"47047","geometry":{"type":"Point","coordinates":[-1.0580533742904663,51.27595901489258]},"properties":{"OrganisationCode":"J82647","OrganisationType":"GP practice","SubType":"UNKNOWN","OrganisationName":"East Barn Surgery","OrganisationStatus":"Visible","IsPimsManaged":"False","Address1":"Great Binfields Road","Address2":"Lychpit","Address3":"Basingstoke","City":"Hampshire","Postcode":"RG24 8TF"}},{"type":"Feature","id":"47048","geometry":{"type":"Point","coordinates":[-0.7810589075088501,50.8525505065918]},"properties":{"OrganisationCode":"H82051","OrganisationType":"GP practice","SubType":"UNKNOWN","OrganisationName":"Lavant Road Surgery","OrganisationStatus":"Visible","IsPimsManaged":"False","Address1":"8 Lavant Road","City":"Chichester","County":"West Sussex","Postcode":"PO19 5RH"}},{"type":"Feature","id":"47049","geometry":{"type":"Point","coordinates":[-2.7384567260742188,52.705169677734375]},"properties":{"OrganisationCode":"Y02495","OrganisationType":"GP practice","SubType":"UNKNOWN","OrganisationName":"Shropshire Walk In Health Centre","OrganisationStatus":"Visible","IsPimsManaged":"False","Address1":"Whitehall","Address2":"Monkmoor Road","Address3":"Shrewsbury","City":"Shropshire","Postcode":"SY2 6AP"}},{"type":"Feature","id":"47050","geometry":{"type":"Point","coordinates":[-2.240919589996338,53.45960998535156]},"properties":{"OrganisationCode":"P84616","OrganisationType":"GP practice","SubType":"UNKNOWN","OrganisationName":"Moss Side Family Medical Practice","OrganisationStatus":"Visible","IsPimsManaged":"False","Address1":"34/36 St Bees Close","Address2":"Moss Side","Address3":"Manchester","Postcode":"M14 4GG"}},{"type":"Feature","id":"47051","geometry":{"type":"Point","coordinates":[-0.14691539108753204,51.258785247802734]},"properties":{"OrganisationCode":"H81083","OrganisationType":"GP practice","SubType":"UNKNOWN","OrganisationName":"The Moat House Surgery","OrganisationStatus":"Visible","IsPimsManaged":"False","Address1":"Worsted Green","Address2":"Merstham","Address3":"Surrey","Postcode":"RH1 3PN"}},{"type":"Feature","id":"47052","geometry":{"type":"Point","coordinates":[-3.39454984664917,54.86915969848633]},"properties":{"OrganisationCode":"A82037","OrganisationType":"GP practice","SubType":"UNKNOWN","OrganisationName":"Silloth Group Medical Practice","OrganisationStatus":"Visible","IsPimsManaged":"False","Address1":"Lawn Terrace","Address2":"Silloth-on-Solway","Address3":"Carlisle","City":"Cumbria","Postcode":"CA7 4AH"}},{"type":"Feature","id":"47053","geometry":{"type":"Point","coordinates":[-1.535434365272522,52.40629577636719]},"properties":{"OrganisationCode":"M86010","OrganisationType":"GP practice","SubType":"UNKNOWN","OrganisationName":"Forrest Medical Centre","OrganisationStatus":"Visible","IsPimsManaged":"False","Address1":"69 Mount Street","Address2":"Coventry","Postcode":"CV5 8DE"}},{"type":"Feature","id":"47054","geometry":{"type":"Point","coordinates":[-0.21365264058113098,51.49633026123047]},"properties":{"OrganisationCode":"E85034","OrganisationType":"GP practice","SubType":"UNKNOWN","OrganisationName":"Grosvenor House Surgery","OrganisationStatus":"Visible","IsPimsManaged":"False","Address1":"Grosvenor House Surgery","Address2":"147 Broadway","Address3":"West Ealing","City":"London","County":"Middlesex","Postcode":"W14 9BE"}},{"type":"Feature","id":"47055","geometry":{"type":"Point","coordinates":[-1.6350079774856567,53.689395904541016]},"properties":{"OrganisationCode":"YO1851","OrganisationType":"GP practice","SubType":"UNKNOWN","OrganisationName":"Victoria Medical Practice","OrganisationStatus":"Visible","IsPimsManaged":"False","Address1":"Dewbury Health Centre","Address2":"Wellington Road","Address3":"Dewsbury","Postcode":"WF13 1HN"}},{"type":"Feature","id":"47056","geometry":{"type":"Point","coordinates":[-2.2558774948120117,53.442501068115234]},"properties":{"OrganisationCode":"P84650","OrganisationType":"GP practice","SubType":"UNKNOWN","OrganisationName":"The Alexandra Practice","OrganisationStatus":"Visible","IsPimsManaged":"False","Address1":"365 Wilbraham Road","Address2":"Whalley Range","Address3":"Manchester","Postcode":"M16 8NG"}},{"type":"Feature","id":"47057","geometry":{"type":"Point","coordinates":[-1.4628865718841553,54.00602722167969]},"properties":{"OrganisationCode":"B82060","OrganisationType":"GP practice","SubType":"UNKNOWN","OrganisationName":"Eastgate Medical Group","OrganisationStatus":"Visible","IsPimsManaged":"False","Address1":"Eastgate Surgery","Address2":"31b York Place","Address3":"Knaresborough","City":"North Yorkshire","Postcode":"HG5 0AD"}},{"type":"Feature","id":"47058","geometry":{"type":"Point","coordinates":[-1.1252232789993286,53.955509185791016]},"properties":{"OrganisationCode":"B82095","OrganisationType":"GP practice","SubType":"UNKNOWN","OrganisationName":"Beech Grove Medical Practice","OrganisationStatus":"Visible","IsPimsManaged":"False","Address1":"Acomb Health Centre","Address2":"1 Beech Grove","Address3":"Acomb","City":"York","Postcode":"YO26 5LD"}},{"type":"Feature","id":"47059","geometry":{"type":"Point","coordinates":[0.047695789486169815,51.5415153503418]},"properties":{"OrganisationCode":"F84074","OrganisationType":"GP practice","SubType":"UNKNOWN","OrganisationName":"Wordsworth Health Centre","OrganisationStatus":"Visible","IsPimsManaged":"False","Address1":"19 Wordsworth Avenue","Address2":"Manor Park","Address3":"London","Postcode":"E12 6SU"}},{"type":"Feature","id":"47060","geometry":{"type":"Point","coordinates":[-0.1937251091003418,51.453758239746094]},"properties":{"OrganisationCode":"H85001","OrganisationType":"GP practice","SubType":"UNKNOWN","OrganisationName":"Wandsworth Medical Centre","OrganisationStatus":"Visible","IsPimsManaged":"False","Address1":"Wandsworth Medical Centre","Address2":"90-92 Garratt Lane","Address3":"Wandsworth","County":"London","Postcode":"SW18 4DD"}},{"type":"Feature","id":"47061","geometry":{"type":"Point","coordinates":[-2.872624397277832,53.56452941894531]},"properties":{"OrganisationCode":"Y02903","OrganisationType":"GP practice","SubType":"UNKNOWN","OrganisationName":"West Lancashire Health Partnership","OrganisationStatus":"Visible","IsPimsManaged":"False","Address1":"Ormskirk District General Hospital","Address2":"Wigan Road","Address3":"Ormskirk","Postcode":"L39 2AZ"}},{"type":"Feature","id":"47062","geometry":{"type":"Point","coordinates":[-2.9959495067596436,51.127140045166016]},"properties":{"OrganisationCode":"L85025","OrganisationType":"GP practice","SubType":"UNKNOWN","OrganisationName":"Cranleigh Gardens Medical Centre","OrganisationStatus":"Visible","IsPimsManaged":"False","Address1":"Cranleigh Gardens","City":"Bridgwater","County":"Somerset","Postcode":"TA6 5JS"}},{"type":"Feature","id":"47063","geometry":{"type":"Point","coordinates":[0.21834920346736908,51.04558181762695]},"properties":{"OrganisationCode":"G81043","OrganisationType":"GP practice","SubType":"UNKNOWN","OrganisationName":"Rotherfield Surgery","OrganisationStatus":"Visible","IsPimsManaged":"False","Address1":"Rotherfield","Address2":"Crowborough","Address3":"East Sussex","Postcode":"TN6 3QW"}},{"type":"Feature","id":"47064","geometry":{"type":"Point","coordinates":[-2.114307403564453,53.42204666137695]},"properties":{"OrganisationCode":"P88044","OrganisationType":"GP practice","SubType":"UNKNOWN","OrganisationName":"Bredbury Medical Centre","OrganisationStatus":"Visible","IsPimsManaged":"False","Address1":"1 Auburn Ave","Address2":"Bredbury","Address3":"Stockport","City":"Cheshire","Postcode":"SK6 2AH"}},{"type":"Feature","id":"47065","geometry":{"type":"Point","coordinates":[-1.0428334474563599,51.11127853393555]},"properties":{"OrganisationCode":"J82625","OrganisationType":"GP practice","SubType":"UNKNOWN","OrganisationName":"Boundaries Surgery","OrganisationStatus":"Visible","IsPimsManaged":"False","Address1":"17 Winchester Road","Address2":"Four Marks","Address3":"Alton","City":"Hampshire","Postcode":"GU34 5HG"}},{"type":"Feature","id":"47066","geometry":{"type":"Point","coordinates":[-0.005203539505600929,51.25465774536133]},"properties":{"OrganisationCode":"H81056","OrganisationType":"GP practice","SubType":"UNKNOWN","OrganisationName":"Oxted Health Centre","OrganisationStatus":"Visible","IsPimsManaged":"False","Address1":"10 Gresham Road","Address2":"Oxted","Address3":"Surrey","Postcode":"RH8 9AE"}},{"type":"Feature","id":"47067","geometry":{"type":"Point","coordinates":[0.10953236371278763,51.537723541259766]},"properties":{"OrganisationCode":"F82040","OrganisationType":"GP practice","SubType":"UNKNOWN","OrganisationName":"John Smith Medical Centre/ChilversMcCrea Healthcare","OrganisationStatus":"Visible","IsPimsManaged":"False","Address1":"John Smith House - 145-207 Bevan Avenue","Address2":"Barking","Postcode":"IG11 9NS"}},{"type":"Feature","id":"47068","geometry":{"type":"Point","coordinates":[-1.3411316871643066,51.2302360534668]},"properties":{"OrganisationCode":"J82214","OrganisationType":"GP practice","SubType":"UNKNOWN","OrganisationName":"Whitchurch Surgery","OrganisationStatus":"Visible","IsPimsManaged":"False","Address1":"Bell Street","City":"Whitchurch","County":"Hampshire","Postcode":"RG28 7AE"}},{"type":"Feature","id":"47069","geometry":{"type":"Point","coordinates":[-2.415459632873535,53.59665298461914]},"properties":{"OrganisationCode":"P82021","OrganisationType":"GP practice","SubType":"UNKNOWN","OrganisationName":"Drs Kirby, Page & McMillen","OrganisationStatus":"Visible","IsPimsManaged":"False","Address1":"Crompton Health Centre","Address2":"501 Crompton Way","City":"Bolton","Postcode":"BL1 8UP"}},{"type":"Feature","id":"47070","geometry":{"type":"Point","coordinates":[1.3992300033569336,51.213279724121094]},"properties":{"OrganisationCode":"G82036","OrganisationType":"GP practice","SubType":"UNKNOWN","OrganisationName":"Balmoral Surgery","OrganisationStatus":"Visible","IsPimsManaged":"False","Address1":"Balmoral Surgery","Address2":"Canada Road","Address3":"Walmer","City":"Deal","County":"Kent","Postcode":"CT14 7EQ"}},{"type":"Feature","id":"47071","geometry":{"type":"Point","coordinates":[-3.2303378582000732,50.912681579589844]},"properties":{"OrganisationCode":"L83044","OrganisationType":"GP practice","SubType":"UNKNOWN","OrganisationName":"The Blackdown Practice","OrganisationStatus":"Visible","IsPimsManaged":"False","Address1":"The Surgery","Address2":"Station Road","Address3":"Hemyock","City":"Cullompton","County":"Devon","Postcode":"EX15 3SF"}},{"type":"Feature","id":"47072","geometry":{"type":"Point","coordinates":[-2.1221516132354736,53.53349685668945]},"properties":{"OrganisationCode":"P85025","OrganisationType":"GP practice","SubType":"UNKNOWN","OrganisationName":"Dr Sidhu's Practice","OrganisationStatus":"Visible","IsPimsManaged":"False","Address1":"2 St Thomas Street South","Address2":"Coppice","Address3":"Oldham","City":"Greater Manchester","Postcode":"OL8 1SG"}},{"type":"Feature","id":"47073","geometry":{"type":"Point","coordinates":[-1.556848168373108,53.778114318847656]},"properties":{"OrganisationCode":"B86002","OrganisationType":"GP practice","SubType":"UNKNOWN","OrganisationName":"City View Medical Practice","OrganisationStatus":"Visible","IsPimsManaged":"False","Address1":"Beeston Hill Community Health Centre","Address2":"123 Cemetery Road","Address3":"Beeston","City":"Leeds","Postcode":"LS11 8LH"}},{"type":"Feature","id":"47074","geometry":{"type":"Point","coordinates":[-1.9690110683441162,52.494407653808594]},"properties":{"OrganisationCode":"M88002","OrganisationType":"GP practice","SubType":"UNKNOWN","OrganisationName":"Smethwick Medical Centre","OrganisationStatus":"Visible","IsPimsManaged":"False","Address1":"Regent Street","City":"Smethwick","County":"West Midlands","Postcode":"B66 3BQ"}},{"type":"Feature","id":"47075","geometry":{"type":"Point","coordinates":[-1.2151424884796143,54.68231201171875]},"properties":{"OrganisationCode":"A81007","OrganisationType":"GP practice","SubType":"UNKNOWN","OrganisationName":"Bankhouse Surgery","OrganisationStatus":"Visible","IsPimsManaged":"False","Address1":"One Life Hartlepool","Address2":"Park Road","Address3":"Hartlepool","Postcode":"TS24 7PW"}},{"type":"Feature","id":"47076","geometry":{"type":"Point","coordinates":[-0.09357831627130508,51.4737548828125]},"properties":{"OrganisationCode":"G85013","OrganisationType":"GP practice","SubType":"UNKNOWN","OrganisationName":"Camberwell Green Practice","OrganisationStatus":"Visible","IsPimsManaged":"False","Address1":"17 Camberwell Green","Address2":"London","Postcode":"SE5 7AF"}},{"type":"Feature","id":"47077","geometry":{"type":"Point","coordinates":[-0.126346617937088,51.51744842529297]},"properties":{"OrganisationCode":"F83061","OrganisationType":"GP practice","SubType":"UNKNOWN","OrganisationName":"The Museum Practice","OrganisationStatus":"Visible","IsPimsManaged":"False","Address1":"58 Great Russell Street","Address2":"London","Postcode":"WC1B 3BA"}},{"type":"Feature","id":"47078","geometry":{"type":"Point","coordinates":[-0.8536074161529541,52.05550765991211]},"properties":{"OrganisationCode":"K82009","OrganisationType":"GP practice","SubType":"UNKNOWN","OrganisationName":"Stony Medical Centre","OrganisationStatus":"Visible","IsPimsManaged":"False","Address1":"The Health Centre","Address2":"Market Square","Address3":"Stony Stratford","City":"Milton Keynes","Postcode":"MK11 1YA"}},{"type":"Feature","id":"47079","geometry":{"type":"Point","coordinates":[-2.0781362056732178,52.5681037902832]},"properties":{"OrganisationCode":"M92627","OrganisationType":"GP practice","SubType":"UNKNOWN","OrganisationName":"Dr S V Sharma and Dr R Mohindroo","OrganisationStatus":"Visible","IsPimsManaged":"False","Address1":"Bilston Health Centre","Address2":"Prouds Lane","Address3":"Bilston","Postcode":"WV14 6PW"}},{"type":"Feature","id":"47080","geometry":{"type":"Point","coordinates":[-0.11056642979383469,51.55046844482422]},"properties":{"OrganisationCode":"F83673","OrganisationType":"GP practice","SubType":"UNKNOWN","OrganisationName":"The Medical Centre","OrganisationStatus":"Visible","IsPimsManaged":"False","Address1":"140 Holloway Road","Address2":"London","Postcode":"N7 8DD"}},{"type":"Feature","id":"47081","geometry":{"type":"Point","coordinates":[-0.47676971554756165,53.26226043701172]},"properties":{"OrganisationCode":"C83031","OrganisationType":"GP practice","SubType":"UNKNOWN","OrganisationName":"Nettleham Medical Practice","OrganisationStatus":"Visible","IsPimsManaged":"False","Address1":"14 Lodge Lane","Address2":"Nettleham","Address3":"Lincolnshire","Postcode":"LN2 2RS"}},{"type":"Feature","id":"47082","geometry":{"type":"Point","coordinates":[-0.008455388247966766,51.444461822509766]},"properties":{"OrganisationCode":"G85121","OrganisationType":"GP practice","SubType":"UNKNOWN","OrganisationName":"Parkview Surgery","OrganisationStatus":"Visible","IsPimsManaged":"False","Address1":"186 Brownhill Road","Address2":"Catford","Address3":"London","Postcode":"SE6 1AT"}},{"type":"Feature","id":"47083","geometry":{"type":"Point","coordinates":[0.3836655616760254,51.18082809448242]},"properties":{"OrganisationCode":"G82118","OrganisationType":"GP practice","SubType":"UNKNOWN","OrganisationName":"Woodlands Health Centre","OrganisationStatus":"Visible","IsPimsManaged":"False","Address1":"1-7 Allington Road","Address2":"Paddock Wood","Address3":"Tonbridge","City":"Kent","Postcode":"TN12 6AX"}},{"type":"Feature","id":"47084","geometry":{"type":"Point","coordinates":[-1.6047725677490234,53.8456916809082]},"properties":{"OrganisationCode":"B86044","OrganisationType":"GP practice","SubType":"UNKNOWN","OrganisationName":"The Croft & Tinshill Medical Practice","OrganisationStatus":"Visible","IsPimsManaged":"False","Address1":"Ireland Wood Surgery","Address2":"Iveson Approach","Postcode":"LS16 6FR"}},{"type":"Feature","id":"47085","geometry":{"type":"Point","coordinates":[-0.03770239278674126,51.500709533691406]},"properties":{"OrganisationCode":"G85692","OrganisationType":"GP practice","SubType":"UNKNOWN","OrganisationName":"Drs Holden, Marrinan, O'Connor & Baxter","OrganisationStatus":"Visible","IsPimsManaged":"False","Address1":"Downtown Road, Surrey Docks, London SE16 6NP","Address2":"www.surreydockshc.co.uk","Postcode":"SE16 6NP"}},{"type":"Feature","id":"47086","geometry":{"type":"Point","coordinates":[-0.36947473883628845,51.89244842529297]},"properties":{"OrganisationCode":"E81026","OrganisationType":"GP practice","SubType":"UNKNOWN","OrganisationName":"Larkside Practice","OrganisationStatus":"Visible","IsPimsManaged":"False","Address1":"Churchfield Medical Centre","Address2":"322 Crawley Green Road","Address3":"Luton","City":"Beds","Postcode":"LU2 9SB"}},{"type":"Feature","id":"47087","geometry":{"type":"Point","coordinates":[-1.9224154949188232,53.855308532714844]},"properties":{"OrganisationCode":"B83033","OrganisationType":"GP practice","SubType":"UNKNOWN","OrganisationName":"Kilmeny Group Medical Practice","OrganisationStatus":"Visible","IsPimsManaged":"False","Address1":"50 Ashbourne Road","Address2":"Ingrow","City":"Keighley","County":"Yorkshire(West Riding)","Postcode":"BD21 1LA"}},{"type":"Feature","id":"47088","geometry":{"type":"Point","coordinates":[-1.306807518005371,53.016483306884766]},"properties":{"OrganisationCode":"C84002","OrganisationType":"GP practice","SubType":"UNKNOWN","OrganisationName":"Church Walk Surgery","OrganisationStatus":"Visible","IsPimsManaged":"False","Address1":"Church Walk","Address2":"Eastwood","Address3":"Nottingham","Postcode":"NG16 3BH"}},{"type":"Feature","id":"47089","geometry":{"type":"Point","coordinates":[-1.1541060209274292,50.72725296020508]},"properties":{"OrganisationCode":"J84012","OrganisationType":"GP practice","SubType":"UNKNOWN","OrganisationName":"Tower House Surgery","OrganisationStatus":"Visible","IsPimsManaged":"False","Address1":"Tower House","Address2":"Rink Road","Address3":"Ryde","City":"Isle of Wight","Postcode":"PO33 1LP"}},{"type":"Feature","id":"47090","geometry":{"type":"Point","coordinates":[-2.5515096187591553,53.601497650146484]},"properties":{"OrganisationCode":"P82006","OrganisationType":"GP practice","SubType":"UNKNOWN","OrganisationName":"Pike View Medical Centre","OrganisationStatus":"Visible","IsPimsManaged":"False","Address1":"2 Albert Street","Address2":"Horwich","Address3":"Bolton","Postcode":"BL6 7AN"}},{"type":"Feature","id":"47091","geometry":{"type":"Point","coordinates":[-2.5149059295654297,52.699161529541016]},"properties":{"OrganisationCode":"M82039","OrganisationType":"GP practice","SubType":"UNKNOWN","OrganisationName":"Wellington Medical Practice","OrganisationStatus":"Visible","IsPimsManaged":"False","Address1":"The Health Centre","Address2":"Wellington","Address3":"Telford","City":"Shropshire","Postcode":"TF1 1PZ"}},{"type":"Feature","id":"47092","geometry":{"type":"Point","coordinates":[-2.178863763809204,51.205875396728516]},"properties":{"OrganisationCode":"J83018","OrganisationType":"GP practice","SubType":"UNKNOWN","OrganisationName":"The Avenue Surgery","OrganisationStatus":"Visible","IsPimsManaged":"False","Address1":"14-16 The Avenue","Address2":"Warminster","Address3":"Wiltshire","Postcode":"BA12 9AA"}},{"type":"Feature","id":"47093","geometry":{"type":"Point","coordinates":[-0.5679519772529602,50.85282897949219]},"properties":{"OrganisationCode":"H82021","OrganisationType":"GP practice","SubType":"UNKNOWN","OrganisationName":"Arundel Surgery","OrganisationStatus":"Visible","IsPimsManaged":"False","Address1":"Green Lane Close","Address2":"Arundel","Address3":"West Sussex","Postcode":"BN18 9HG"}},{"type":"Feature","id":"47098","geometry":{"type":"Point","coordinates":[0.18995653092861176,51.530853271484375]},"properties":{"OrganisationCode":"F82614","OrganisationType":"GP practice","SubType":"UNKNOWN","OrganisationName":"Mungo Park Surgery","OrganisationStatus":"Visible","IsPimsManaged":"False","Address1":"South Hornchurch Health Centre","Address2":"106 Southend Road","City":"Rainham","County":"Essex","Postcode":"RM13 7XJ"}},{"type":"Feature","id":"47108","geometry":{"type":"Point","coordinates":[-1.4357587099075317,52.499359130859375]},"properties":{"OrganisationCode":"M84034","OrganisationType":"GP practice","SubType":"UNKNOWN","OrganisationName":"Whitestone Surgery","OrganisationStatus":"Visible","IsPimsManaged":"False","Address1":"82 Bulkington Lane","City":"Nuneaton","Postcode":"CV11 4SB"}},{"type":"Feature","id":"47111","geometry":{"type":"Point","coordinates":[-1.717756986618042,53.769615173339844]},"properties":{"OrganisationCode":"B83015","OrganisationType":"GP practice","SubType":"UNKNOWN","OrganisationName":"Tong Medical Practice","OrganisationStatus":"Visible","IsPimsManaged":"False","Address1":"Highfield Health Centre","Address2":"2 Proctor Street","City":"Bradford","County":"West Yorkshire","Postcode":"BD4 9QA"}},{"type":"Feature","id":"47116","geometry":{"type":"Point","coordinates":[-0.1716369390487671,51.35809326171875]},"properties":{"OrganisationCode":"H85662","OrganisationType":"GP practice","SubType":"UNKNOWN","OrganisationName":"Beeches Surgery","OrganisationStatus":"Visible","IsPimsManaged":"False","Address1":"9 Hill Road","City":"Carshalton Beeches","County":"Surrey","Postcode":"SM5 3RB"}},{"type":"Feature","id":"47120","geometry":{"type":"Point","coordinates":[-2.9388527870178223,54.90678787231445]},"properties":{"OrganisationCode":"A82052","OrganisationType":"GP practice","SubType":"UNKNOWN","OrganisationName":"Stanwix Medical Practice","OrganisationStatus":"Visible","IsPimsManaged":"False","Address1":"77 - 81 Scotland Road","City":"Carlisle","County":"Cumbria","Postcode":"CA3 9HL"}},{"type":"Feature","id":"47124","geometry":{"type":"Point","coordinates":[-2.1222450733184814,53.565853118896484]},"properties":{"OrganisationCode":"P85006","OrganisationType":"GP practice","SubType":"UNKNOWN","OrganisationName":"The Parks Medical Practice ","OrganisationStatus":"Visible","IsPimsManaged":"False","Address1":"Royton Health & Wellbeing Centre","Address2":"Park Streeet","City":"Royton","County":"Lancashire","Postcode":"OL2 6QW"}},{"type":"Feature","id":"47127","geometry":{"type":"Point","coordinates":[-5.233517646789551,50.23386764526367]},"properties":{"OrganisationCode":"L82042","OrganisationType":"GP practice","SubType":"UNKNOWN","OrganisationName":"Dr J S Foster and Partners","OrganisationStatus":"Visible","IsPimsManaged":"False","Address1":"Manor Surgery","Address2":"Forth Noweth","City":"Redruth","County":"Cornwall","Postcode":"TR15 1AU"}},{"type":"Feature","id":"47130","geometry":{"type":"Point","coordinates":[0.3978504240512848,51.15085983276367]},"properties":{"OrganisationCode":"G82158","OrganisationType":"GP practice","SubType":"UNKNOWN","OrganisationName":"Howell Surgery Brenchley","OrganisationStatus":"Visible","IsPimsManaged":"False","Address1":"Howell Surgery","Address2":"High Street","City":"Brenchley","County":"Kent","Postcode":"TN12 7NQ"}},{"type":"Feature","id":"47135","geometry":{"type":"Point","coordinates":[-1.2752071619033813,51.687522888183594]},"properties":{"OrganisationCode":"K84079","OrganisationType":"GP practice","SubType":"UNKNOWN","OrganisationName":"Long Furlong Medical Centre","OrganisationStatus":"Visible","IsPimsManaged":"False","Address1":"45 Loyd Close","City":"Abingdon","County":"Oxfordshire","Postcode":"OX14 1XR"}},{"type":"Feature","id":"47138","geometry":{"type":"Point","coordinates":[-1.1458203792572021,52.94082260131836]},"properties":{"OrganisationCode":"C84674","OrganisationType":"GP practice","SubType":"UNKNOWN","OrganisationName":"WILFORD GROVE SURGERY","OrganisationStatus":"Visible","IsPimsManaged":"False","Address1":"55 WILFORD GROVE","Address2":"MEADOWS","Address3":"NOTTINGHAM","City":"NOTTINGHAM","County":"Nottinghamshire","Postcode":"NG2 2DR"}},{"type":"Feature","id":"47146","geometry":{"type":"Point","coordinates":[-3.233424663543701,50.9755973815918]},"properties":{"OrganisationCode":"L85012","OrganisationType":"GP practice","SubType":"UNKNOWN","OrganisationName":"Wellington Medical Centre ","OrganisationStatus":"Visible","IsPimsManaged":"False","Address1":"Wellington Medical Centre","Address2":"Mantle Street","City":"Wellington","County":"Somerset","Postcode":"TA21 8BD"}},{"type":"Feature","id":"47150","geometry":{"type":"Point","coordinates":[-1.0184831619262695,53.5025634765625]},"properties":{"OrganisationCode":"C86609","OrganisationType":"GP practice","SubType":"UNKNOWN","OrganisationName":"Auckley Surgery","OrganisationStatus":"Visible","IsPimsManaged":"False","Address1":"41 Ellers Lane","Address2":"Auckley","City":"Doncaster","Postcode":"DN9 3HY"}},{"type":"Feature","id":"47151","geometry":{"type":"Point","coordinates":[-0.400470495223999,53.137203216552734]},"properties":{"OrganisationCode":"C83062","OrganisationType":"GP practice","SubType":"UNKNOWN","OrganisationName":"Church Walk Surgery","OrganisationStatus":"Visible","IsPimsManaged":"False","Address1":"Drury Street","Address2":"Metheringham","City":"Lincoln","Postcode":"LN4 3EZ"}},{"type":"Feature","id":"47153","geometry":{"type":"Point","coordinates":[-0.20180007815361023,51.431400299072266]},"properties":{"OrganisationCode":"H85112","OrganisationType":"GP practice","SubType":"UNKNOWN","OrganisationName":"J R Jones","OrganisationStatus":"Visible","IsPimsManaged":"False","Address1":"67 Vineyard Hill Road","Address2":"Wimbledon","City":"London ","Postcode":"SW19 7JL"}},{"type":"Feature","id":"47165","geometry":{"type":"Point","coordinates":[-0.3731290400028229,51.468074798583984]},"properties":{"OrganisationCode":"E85058","OrganisationType":"GP practice","SubType":"UNKNOWN","OrganisationName":"Blue Wing Family Doctor Unit","OrganisationStatus":"Visible","IsPimsManaged":"False","Address1":"92 Bath Road","City":"Hounslow","County":"Middlesex","Postcode":"TW3 3EL"}},{"type":"Feature","id":"47170","geometry":{"type":"Point","coordinates":[-1.4443801641464233,52.39961242675781]},"properties":{"OrganisationCode":"M86015","OrganisationType":"GP practice","SubType":"UNKNOWN","OrganisationName":"Kenyon Medical Centres","OrganisationStatus":"Visible","IsPimsManaged":"False","Address1":"108 Brandon Road","Address2":"Binley","City":"Coventry","County":"West Midlands","Postcode":"CV3 2JF"}},{"type":"Feature","id":"47171","geometry":{"type":"Point","coordinates":[-0.27154073119163513,51.5655403137207]},"properties":{"OrganisationCode":"E84002","OrganisationType":"GP practice","SubType":"UNKNOWN","OrganisationName":"Forty Willows Surgery","OrganisationStatus":"Visible","IsPimsManaged":"False","Address1":"46 Forty Lane","City":"Wembley","County":"Middlesex","Postcode":"HA9 9HA"}},{"type":"Feature","id":"47176","geometry":{"type":"Point","coordinates":[0.7868422865867615,51.529876708984375]},"properties":{"OrganisationCode":"F81649","OrganisationType":"GP practice","SubType":"UNKNOWN","OrganisationName":"Dr. Mario Schembri","OrganisationStatus":"Visible","IsPimsManaged":"False","Address1":"Dr. Mario Schembri","Address2":"Shoebury Health Centre","Address3":"Campfield Road","City":"Shoeburyness","County":"Essex","Postcode":"SS3 9BX"}},{"type":"Feature","id":"47177","geometry":{"type":"Point","coordinates":[-0.1263275146484375,51.34209060668945]},"properties":{"OrganisationCode":"H83024","OrganisationType":"GP practice","SubType":"UNKNOWN","OrganisationName":"Woodcote Medical","OrganisationStatus":"Visible","IsPimsManaged":"False","Address1":"32 Foxley Lane","City":"Purley","County":"Surrey","Postcode":"CR8 3EE"}},{"type":"Feature","id":"47178","geometry":{"type":"Point","coordinates":[-1.7630646228790283,51.339752197265625]},"properties":{"OrganisationCode":"J83017","OrganisationType":"GP practice","SubType":"UNKNOWN","OrganisationName":"Pewsey Surgery","OrganisationStatus":"Visible","IsPimsManaged":"False","Address1":"High Street","City":"Pewsey","County":"Wiltshire","Postcode":"SN9 5AQ"}},{"type":"Feature","id":"47183","geometry":{"type":"Point","coordinates":[-1.3800965547561646,53.93013000488281]},"properties":{"OrganisationCode":"B86625","OrganisationType":"GP practice","SubType":"UNKNOWN","OrganisationName":"Wetherby Surgery","OrganisationStatus":"Visible","IsPimsManaged":"False","Address1":"Wetherby Health Centre","Address2":"Hallfield Lane","City":"Wetherby","County":"West Yorkshire","Postcode":"LS22 6JS"}},{"type":"Feature","id":"47188","geometry":{"type":"Point","coordinates":[-0.2790049910545349,51.59712219238281]},"properties":{"OrganisationCode":"E84075","OrganisationType":"GP practice","SubType":"UNKNOWN","OrganisationName":"Harness Harrow Practice","OrganisationStatus":"Visible","IsPimsManaged":"False","Address1":"45c & 46 South Parade","City":"Edgware","County":"Middlesex","Postcode":"HA8 5QL"}},{"type":"Feature","id":"47191","geometry":{"type":"Point","coordinates":[-1.535068154335022,53.826568603515625]},"properties":{"OrganisationCode":"B86039","OrganisationType":"GP practice","SubType":"UNKNOWN","OrganisationName":"Dr Fj Lawrenson And Partners","OrganisationStatus":"Visible","IsPimsManaged":"False","Address1":"6 Montreal Avenue","City":"Leeds","Postcode":"LS7 4LF"}},{"type":"Feature","id":"47195","geometry":{"type":"Point","coordinates":[-1.557803750038147,54.9779052734375]},"properties":{"OrganisationCode":"Y03134","OrganisationType":"GP practice","SubType":"UNKNOWN","OrganisationName":"The Gateway Practice","OrganisationStatus":"Visible","IsPimsManaged":"False","Address1":"45 Scrogg Road","City":"Newcastle upon Tyne","Postcode":"NE6 4EY"}},{"type":"Feature","id":"47201","geometry":{"type":"Point","coordinates":[-1.2031100988388062,50.59450149536133]},"properties":{"OrganisationCode":"J84018","OrganisationType":"GP practice","SubType":"UNKNOWN","OrganisationName":"Grove House SUrgery","OrganisationStatus":"Visible","IsPimsManaged":"False","Address1":"Grove House Surgery","Address2":"102 Albert Street","City":"Ventnor","County":"Isle of Wight","Postcode":"PO38 1EU"}},{"type":"Feature","id":"47202","geometry":{"type":"Point","coordinates":[-0.5450322031974792,53.23884201049805]},"properties":{"OrganisationCode":"C83073","OrganisationType":"GP practice","SubType":"UNKNOWN","OrganisationName":"Cliff House Medical Practice","OrganisationStatus":"Visible","IsPimsManaged":"False","Address1":"82 Burton Road","City":"Lincoln","County":"Lincolnshire","Postcode":"LN1 3LJ"}},{"type":"Feature","id":"47203","geometry":{"type":"Point","coordinates":[-0.3244820833206177,50.8280029296875]},"properties":{"OrganisationCode":"H82096","OrganisationType":"GP practice","SubType":"UNKNOWN","OrganisationName":"The Orchard Surgery","OrganisationStatus":"Visible","IsPimsManaged":"False","Address1":"Penstone Park","City":"Lancing","Postcode":"BN15 9AG"}},{"type":"Feature","id":"47204","geometry":{"type":"Point","coordinates":[-0.493685781955719,52.13237762451172]},"properties":{"OrganisationCode":"E81021","OrganisationType":"GP practice","SubType":"UNKNOWN","OrganisationName":"Dr Khokher & Partners","OrganisationStatus":"Visible","IsPimsManaged":"False","Address1":"23c Carlisle Road","Address2":"Queens Park","City":"Bedford","County":"Bedfordshire","Postcode":"MK40 4HR"}},{"type":"Feature","id":"47218","geometry":{"type":"Point","coordinates":[-0.4492098391056061,51.4322395324707]},"properties":{"OrganisationCode":"H81632","OrganisationType":"GP practice","SubType":"UNKNOWN","OrganisationName":"Orchards Surgery","OrganisationStatus":"Visible","IsPimsManaged":"False","Address1":"107 Felton Hill Road","City":"Ashford","County":"Surrey","Postcode":"TW15 1HH"}},{"type":"Feature","id":"47222","geometry":{"type":"Point","coordinates":[-2.280207633972168,53.47929763793945]},"properties":{"OrganisationCode":"Y02625","OrganisationType":"GP practice","SubType":"UNKNOWN","OrganisationName":"Care Homes Medical Practice","OrganisationStatus":"Visible","IsPimsManaged":"False","Address1":"Sandringham House","Address2":"Windsor Street","Address3":"Salford","City":"Manchester","County":"Lancashire","Postcode":"M5 4DG"}},{"type":"Feature","id":"47226","geometry":{"type":"Point","coordinates":[-1.8157507181167603,50.72747802734375]},"properties":{"OrganisationCode":"J81018","OrganisationType":"GP practice","SubType":"UNKNOWN","OrganisationName":"Beaufort Road Practice","OrganisationStatus":"Visible","IsPimsManaged":"False","Address1":"21 Beaufort Road","Address2":"Southbourne","City":"Bournemouth","County":"Dorset","Postcode":"BH6 5AJ"}},{"type":"Feature","id":"47228","geometry":{"type":"Point","coordinates":[-2.6075282096862793,53.3980827331543]},"properties":{"OrganisationCode":"N81056","OrganisationType":"GP practice","SubType":"UNKNOWN","OrganisationName":"The Medical Centre, Folly Lane","OrganisationStatus":"Visible","IsPimsManaged":"False","Address1":"Folly Lane ","City":"Warrington","Postcode":"WA5 0LU"}},{"type":"Feature","id":"47234","geometry":{"type":"Point","coordinates":[-1.8988239765167236,52.27051544189453]},"properties":{"OrganisationCode":"M84002","OrganisationType":"GP practice","SubType":"UNKNOWN","OrganisationName":"Pool Medical Centre","OrganisationStatus":"Visible","IsPimsManaged":"False","Address1":"Pool Road","City":"Studley","County":"Warwickshire","Postcode":"B80 7QU"}},{"type":"Feature","id":"47240","geometry":{"type":"Point","coordinates":[-1.173404335975647,52.97697448730469]},"properties":{"OrganisationCode":"C84151","OrganisationType":"GP practice","SubType":"UNKNOWN","OrganisationName":"Dr S Balendran","OrganisationStatus":"Visible","IsPimsManaged":"False","Address1":"The Medical Centre","Address2":"2a Zulu Road","Address3":"New Basford","City":"Nottingham","Postcode":"NG7 7DS"}},{"type":"Feature","id":"47242","geometry":{"type":"Point","coordinates":[-0.29873016476631165,51.72599792480469]},"properties":{"OrganisationCode":"E82107","OrganisationType":"GP practice","SubType":"UNKNOWN","OrganisationName":"KHAN I","OrganisationStatus":"Visible","IsPimsManaged":"False","Address1":"The Village Surgery","Address2":"283 The High Street","Address3":"London Colney","City":"St Albans","Postcode":"AL2 1EU"}},{"type":"Feature","id":"47246","geometry":{"type":"Point","coordinates":[-0.2968948781490326,51.54343032836914]},"properties":{"OrganisationCode":"E84051","OrganisationType":"GP practice","SubType":"UNKNOWN","OrganisationName":"STANLEY CORNER MEDICAL CENTRE Dr Krotosky & Pts","OrganisationStatus":"Visible","IsPimsManaged":"False","Address1":"1-3 Stanley Avenue","City":"Wembley","County":"Middlesex","Postcode":"HA0 4JF"}},{"type":"Feature","id":"47247","geometry":{"type":"Point","coordinates":[0.7011908292770386,51.544471740722656]},"properties":{"OrganisationCode":"F81724","OrganisationType":"GP practice","SubType":"UNKNOWN","OrganisationName":"New Westborough Surgery","OrganisationStatus":"Visible","IsPimsManaged":"False","Address1":"North Road PCC","Address2":"183-195 North Road","City":"Westcliff-on-sea","Postcode":"SS0 7AF"}},{"type":"Feature","id":"47248","geometry":{"type":"Point","coordinates":[-1.780673861503601,52.45555114746094]},"properties":{"OrganisationCode":"M85097","OrganisationType":"GP practice","SubType":"UNKNOWN","OrganisationName":"Cranes Park Road Surgery","OrganisationStatus":"Visible","IsPimsManaged":"False","Address1":"25 Cranes  Park Road","Address2":"Sheldon","City":"Birmingham","County":"West Midlands","Postcode":"B26 3SE"}},{"type":"Feature","id":"47257","geometry":{"type":"Point","coordinates":[-1.1975188255310059,52.639129638671875]},"properties":{"OrganisationCode":"C82008","OrganisationType":"GP practice","SubType":"UNKNOWN","OrganisationName":"Oakmeadow Surgery","OrganisationStatus":"Visible","IsPimsManaged":"False","Address1":"87 Tatlow Road","Address2":"Glenfield","City":"Leicester","County":"Leicestershire","Postcode":"LE3 8NF"}},{"type":"Feature","id":"47264","geometry":{"type":"Point","coordinates":[-0.22705911099910736,50.85084533691406]},"properties":{"OrganisationCode":"G81073","OrganisationType":"GP practice","SubType":"UNKNOWN","OrganisationName":"Mile Oak Medical Centre","OrganisationStatus":"Visible","IsPimsManaged":"False","Address1":"Chalky Road","Address2":"Portslade","City":"Brighton & Hove","County":"East Sussex","Postcode":"BN41 2WF"}},{"type":"Feature","id":"47276","geometry":{"type":"Point","coordinates":[-1.1439924240112305,52.65583419799805]},"properties":{"OrganisationCode":"C82018","OrganisationType":"GP practice","SubType":"UNKNOWN","OrganisationName":"Dr S.M Arolker & Partners","OrganisationStatus":"Visible","IsPimsManaged":"False","Address1":"Parker Drive Medical Centre","Address2":"122 Parker Drive","City":"Leicester","County":"Leicestershire","Postcode":"LE4 0JF"}},{"type":"Feature","id":"47277","geometry":{"type":"Point","coordinates":[-1.4062654972076416,53.04668426513672]},"properties":{"OrganisationCode":"C81059","OrganisationType":"GP practice","SubType":"UNKNOWN","OrganisationName":"Ripley Medical Centre","OrganisationStatus":"Visible","IsPimsManaged":"False","Address1":"Derby Road","City":"Ripley","County":"Derbyshire","Postcode":"DE5 3HR"}},{"type":"Feature","id":"47286","geometry":{"type":"Point","coordinates":[-2.7133264541625977,51.14808654785156]},"properties":{"OrganisationCode":"L85047","OrganisationType":"GP practice","SubType":"UNKNOWN","OrganisationName":"Glastonbury Health Centre","OrganisationStatus":"Visible","IsPimsManaged":"False","Address1":"1 Wells Road","City":"Glastonbury","County":"Somerset","Postcode":"BA6 9DD"}},{"type":"Feature","id":"47288","geometry":{"type":"Point","coordinates":[-1.825923204421997,53.66106414794922]},"properties":{"OrganisationCode":"B85033","OrganisationType":"GP practice","SubType":"UNKNOWN","OrganisationName":"The Lindley Village Surgery","OrganisationStatus":"Visible","IsPimsManaged":"False","Address1":"Thomas Street","Address2":"Lindley","City":"Huddersfield","County":"West Yorkshire","Postcode":"HD3 3JD"}},{"type":"Feature","id":"47298","geometry":{"type":"Point","coordinates":[-2.2427234649658203,53.51173782348633]},"properties":{"OrganisationCode":"P84074","OrganisationType":"GP practice","SubType":"UNKNOWN","OrganisationName":"Wellfield Medical Centre ","OrganisationStatus":"Visible","IsPimsManaged":"False","Address1":"53 Crescent Road","Address2":"Crumpsall","City":"Manchester","County":"Lancashire","Postcode":"M8 9JT"}},{"type":"Feature","id":"47305","geometry":{"type":"Point","coordinates":[-0.699454665184021,52.49085998535156]},"properties":{"OrganisationCode":"K83002","OrganisationType":"GP practice","SubType":"UNKNOWN","OrganisationName":"Lakeside and Forest Gate Surgery","OrganisationStatus":"Visible","IsPimsManaged":"False","Address1":"Forest Gate Road","City":"Corby","County":"Northamptonshire","Postcode":"NN17 1TR"}},{"type":"Feature","id":"47310","geometry":{"type":"Point","coordinates":[-0.008179734461009502,51.58294677734375]},"properties":{"OrganisationCode":"F86689","OrganisationType":"GP practice","SubType":"UNKNOWN","OrganisationName":"The Bailey Practice","OrganisationStatus":"Visible","IsPimsManaged":"False","Address1":"107 Shernhall Street","City":"Walthamstow","County":"Essex","Postcode":"E17 9HS"}},{"type":"Feature","id":"47311","geometry":{"type":"Point","coordinates":[-2.9684386253356934,53.66086959838867]},"properties":{"OrganisationCode":"P81772","OrganisationType":"GP practice","SubType":"UNKNOWN","OrganisationName":"North Meols Medical Centre","OrganisationStatus":"Visible","IsPimsManaged":"False","Address1":"Church Road","Address2":"Banks","City":"Southport","Postcode":"PR9 9RZ"}},{"type":"Feature","id":"47318","geometry":{"type":"Point","coordinates":[-1.6048824787139893,53.83401107788086]},"properties":{"OrganisationCode":"B86065","OrganisationType":"GP practice","SubType":"UNKNOWN","OrganisationName":"Moor Grange Surgery","OrganisationStatus":"Visible","IsPimsManaged":"False","Address1":"60 Moor Grange View","City":"LEEDS","County":"Yorkshire(West Riding)","Postcode":"LS16 5BJ"}},{"type":"Feature","id":"47321","geometry":{"type":"Point","coordinates":[-1.3499677181243896,52.72277069091797]},"properties":{"OrganisationCode":"C82072","OrganisationType":"GP practice","SubType":"UNKNOWN","OrganisationName":"Broom Leys Surgery","OrganisationStatus":"Visible","IsPimsManaged":"False","Address1":"Broom Leys Road","Address2":" ","City":" Coalville","County":"Leicestershire","Postcode":"LE67 4DE"}},{"type":"Feature","id":"47322","geometry":{"type":"Point","coordinates":[-0.7002860903739929,51.60793685913086]},"properties":{"OrganisationCode":"K82029","OrganisationType":"GP practice","SubType":"UNKNOWN","OrganisationName":"Cherrymead Surgery","OrganisationStatus":"Visible","IsPimsManaged":"False","Address1":"Queensmead Road","Address2":"Loudwater","City":"High Wycombe","County":"Buckinghamshire","Postcode":"HP10 9XA"}},{"type":"Feature","id":"47332","geometry":{"type":"Point","coordinates":[-1.1548246145248413,52.630741119384766]},"properties":{"OrganisationCode":"C82085","OrganisationType":"GP practice","SubType":"UNKNOWN","OrganisationName":"Westcotes Health Centre","OrganisationStatus":"Visible","IsPimsManaged":"False","Address1":"Westcotes Health Centre","Address2":"Fosse Road South","City":"Leicester","Postcode":"LE3 0LP"}},{"type":"Feature","id":"47334","geometry":{"type":"Point","coordinates":[-4.05363130569458,50.385746002197266]},"properties":{"OrganisationCode":"L83133","OrganisationType":"GP practice","SubType":"UNKNOWN","OrganisationName":"Plym River Practice","OrganisationStatus":"Visible","IsPimsManaged":"False","Address1":"Plym River Practice","Address2":"Plympton Health Centre","Address3":"Mudge Way,Plympton","City":"Plymouth","County":"Devon","Postcode":"PL7 1AD"}},{"type":"Feature","id":"47337","geometry":{"type":"Point","coordinates":[-1.4989299774169922,53.79945755004883]},"properties":{"OrganisationCode":"B86054","OrganisationType":"GP practice","SubType":"UNKNOWN","OrganisationName":"The Garden Surgery ","OrganisationStatus":"Visible","IsPimsManaged":"False","Address1":"2ND FLOOR ","Address2":"EAST LEEDS HEALTH CENTRE ","Address3":"78 OSMONDTHORPE LANE ","City":"LEEDS ","Postcode":"LS9 9EF"}},{"type":"Feature","id":"47344","geometry":{"type":"Point","coordinates":[-2.220289707183838,53.837154388427734]},"properties":{"OrganisationCode":"P81170","OrganisationType":"GP practice","SubType":"UNKNOWN","OrganisationName":"Dr M Malik & Partners","OrganisationStatus":"Visible","IsPimsManaged":"False","Address1":"Yarnspinners Primary HCC","Address2":"Carr Road","City":"Nelson","County":"Lancashire","Postcode":"BB9 7SR"}},{"type":"Feature","id":"47345","geometry":{"type":"Point","coordinates":[-1.858676791191101,52.45297622680664]},"properties":{"OrganisationCode":"M85735","OrganisationType":"GP practice","SubType":"UNKNOWN","OrganisationName":"Greet Medical Practice","OrganisationStatus":"Visible","IsPimsManaged":"False","Address1":"50 Percy Road","Address2":"Greet","City":"Birmingham","County":"West Midlands","Postcode":"B11 3ND"}},{"type":"Feature","id":"47347","geometry":{"type":"Point","coordinates":[-2.060737133026123,50.63588333129883]},"properties":{"OrganisationCode":"J81612","OrganisationType":"GP practice","SubType":"UNKNOWN","OrganisationName":"Corfe Castle Surgery","OrganisationStatus":"Visible","IsPimsManaged":"False","Address1":"Tom's Mead","Address2":"West Street","Address3":"Corfe Castle","City":"Wareham","County":"Dorset","Postcode":"BH20 5HH"}},{"type":"Feature","id":"47351","geometry":{"type":"Point","coordinates":[-0.01188806351274252,51.564125061035156]},"properties":{"OrganisationCode":"F86044","OrganisationType":"GP practice","SubType":"UNKNOWN","OrganisationName":"Crawley road medical centre","OrganisationStatus":"Visible","IsPimsManaged":"False","Address1":"479 high road","Address2":"Leyton","City":"London","Postcode":"E10 5EL"}},{"type":"Feature","id":"47352","geometry":{"type":"Point","coordinates":[-2.596630096435547,53.47903823852539]},"properties":{"OrganisationCode":"P92639","OrganisationType":"GP practice","SubType":"UNKNOWN","OrganisationName":"Family Medical Practice","OrganisationStatus":"Visible","IsPimsManaged":"False","Address1":"Golborne Health Centre","Address2":"Kidglove House","Address3":"Kidglove Road","City":"Golborne","Postcode":"WA3 3GS"}},{"type":"Feature","id":"47367","geometry":{"type":"Point","coordinates":[-0.8986033201217651,52.24204635620117]},"properties":{"OrganisationCode":"K83025","OrganisationType":"GP practice","SubType":"UNKNOWN","OrganisationName":"The Mounts Medical Centre","OrganisationStatus":"Visible","IsPimsManaged":"False","Address1":"Campbell Street","Address2":"Mounts Medical Centre, Campbell Street","City":"Northampton","County":"Northamptonshire","Postcode":"NN1 3DS"}},{"type":"Feature","id":"47369","geometry":{"type":"Point","coordinates":[-1.6626100540161133,50.745121002197266]},"properties":{"OrganisationCode":"J82166","OrganisationType":"GP practice","SubType":"UNKNOWN","OrganisationName":"Barton Surgery","OrganisationStatus":"Visible","IsPimsManaged":"False","Address1":"Edmunds Close","City":"Barton-on-Sea","Postcode":"BH25 7EN"}},{"type":"Feature","id":"47376","geometry":{"type":"Point","coordinates":[-1.0291868448257446,53.56197738647461]},"properties":{"OrganisationCode":"C86611","OrganisationType":"GP practice","SubType":"UNKNOWN","OrganisationName":"Dunsville Medical Centre","OrganisationStatus":"Visible","IsPimsManaged":"False","Address1":"126/128 High Street","Address2":"Dunsville","City":"Doncaster","County":"South Yorkshire","Postcode":"DN7 4BY"}},{"type":"Feature","id":"47377","geometry":{"type":"Point","coordinates":[0.034686584025621414,51.54084396362305]},"properties":{"OrganisationCode":"F84660","OrganisationType":"GP practice","SubType":"UNKNOWN","OrganisationName":"Dr CM Patel's Surgery","OrganisationStatus":"Visible","IsPimsManaged":"False","Address1":"Dr CM Patel's Surgery","Address2":"2 Jephson Road","City":"London","Postcode":"E7 8LZ"}},{"type":"Feature","id":"47382","geometry":{"type":"Point","coordinates":[-0.07159093767404556,50.83129119873047]},"properties":{"OrganisationCode":"G81642","OrganisationType":"GP practice","SubType":"UNKNOWN","OrganisationName":"Ridgeway Surgery","OrganisationStatus":"Visible","IsPimsManaged":"False","Address1":"130 The Ridgway","Address2":"Woodingdean","City":"Brighton","County":"East Sussex","Postcode":"BN2 6PB"}},{"type":"Feature","id":"47385","geometry":{"type":"Point","coordinates":[-2.2279694080352783,53.00929641723633]},"properties":{"OrganisationCode":"Y02570","OrganisationType":"GP practice","SubType":"UNKNOWN","OrganisationName":"Midway Medical Walk In Centre","OrganisationStatus":"Visible","IsPimsManaged":"False","Address1":"Morston House","Address2":"The Midway","City":"Newcastle-under-Lyme","County":"Staffordshire","Postcode":"ST5 1QG"}},{"type":"Feature","id":"47387","geometry":{"type":"Point","coordinates":[0.7652906179428101,51.435951232910156]},"properties":{"OrganisationCode":"G82687","OrganisationType":"GP practice","SubType":"UNKNOWN","OrganisationName":"Dr Witts S J","OrganisationStatus":"Visible","IsPimsManaged":"False","Address1":"Sheerness Health Centre","Address2":"250-262 High Street","City":"Sheerness","County":"Kent","Postcode":"ME12 1UP"}},{"type":"Feature","id":"47390","geometry":{"type":"Point","coordinates":[-2.509416103363037,52.98954391479492]},"properties":{"OrganisationCode":"N81001","OrganisationType":"GP practice","SubType":"UNKNOWN","OrganisationName":"Audlem Medical Practice","OrganisationStatus":"Visible","IsPimsManaged":"False","Address1":"16 Cheshire Street","Address2":"Audlem","City":"Crewe","County":"Cheshire","Postcode":"CW3 0AH"}},{"type":"Feature","id":"47396","geometry":{"type":"Point","coordinates":[-2.775510787963867,53.455535888671875]},"properties":{"OrganisationCode":"N83614","OrganisationType":"GP practice","SubType":"UNKNOWN","OrganisationName":"Eccleston Medical Centre","OrganisationStatus":"Visible","IsPimsManaged":"False","Address1":"Chapel Lane","Address2":"Eccleston","City":"St Helens","County":"Merseyside","Postcode":"WA10 5DA"}},{"type":"Feature","id":"47398","geometry":{"type":"Point","coordinates":[-0.738503634929657,52.67019271850586]},"properties":{"OrganisationCode":"C82010","OrganisationType":"GP practice","SubType":"UNKNOWN","OrganisationName":"Oakham Medical Practice","OrganisationStatus":"Visible","IsPimsManaged":"False","Address1":"Cold Overton Road","City":"Oakham","County":"Rutland","Postcode":"LE15 6NT"}},{"type":"Feature","id":"47399","geometry":{"type":"Point","coordinates":[-0.5097013711929321,51.51844787597656]},"properties":{"OrganisationCode":"K82006","OrganisationType":"GP practice","SubType":"UNKNOWN","OrganisationName":"Iver Medical Centre","OrganisationStatus":"Visible","IsPimsManaged":"False","Address1":"High Street","City":"Iver","Postcode":"SL0 9NU"}},{"type":"Feature","id":"47410","geometry":{"type":"Point","coordinates":[1.3157950639724731,51.128421783447266]},"properties":{"OrganisationCode":"G82002","OrganisationType":"GP practice","SubType":"UNKNOWN","OrganisationName":"St James' Surgery","OrganisationStatus":"Visible","IsPimsManaged":"False","Address1":"2 Harold Street","City":"Dover","County":"Kent","Postcode":"CT16 1SF"}},{"type":"Feature","id":"47420","geometry":{"type":"Point","coordinates":[-2.637617826461792,53.398826599121094]},"properties":{"OrganisationCode":"N81650","OrganisationType":"GP practice","SubType":"UNKNOWN","OrganisationName":"CCA Care Partnership Chapelford","OrganisationStatus":"Visible","IsPimsManaged":"False","Address1":"Burtonwood Road","City":"Warrington","County":"Cheshire","Postcode":"WA5 3AN"}},{"type":"Feature","id":"47425","geometry":{"type":"Point","coordinates":[0.27116578817367554,51.13360595703125]},"properties":{"OrganisationCode":"G82075","OrganisationType":"GP practice","SubType":"UNKNOWN","OrganisationName":"St James Medical Centre","OrganisationStatus":"Visible","IsPimsManaged":"False","Address1":"11 Carlton Road","City":"Tunbridge Wells","County":"Kent","Postcode":"TN1 2HW"}},{"type":"Feature","id":"47426","geometry":{"type":"Point","coordinates":[-1.0421096086502075,52.98767852783203]},"properties":{"OrganisationCode":"C84646","OrganisationType":"GP practice","SubType":"UNKNOWN","OrganisationName":"The Ivy Medical Group","OrganisationStatus":"Visible","IsPimsManaged":"False","Address1":"Lambley Lane Surgery","Address2":"6 Lambley Lane","Address3":"Burton Joyce","City":"Nottingham","Postcode":"NG14 5BG"}},{"type":"Feature","id":"47427","geometry":{"type":"Point","coordinates":[-2.204836845397949,51.25259017944336]},"properties":{"OrganisationCode":"J83040","OrganisationType":"GP practice","SubType":"UNKNOWN","OrganisationName":"White Horse Health Centre","OrganisationStatus":"Visible","IsPimsManaged":"False","Address1":"Mane Way","Address2":"Leigh Park","City":"Westbury","County":"Wiltshire","Postcode":"BA13 3FQ"}},{"type":"Feature","id":"47431","geometry":{"type":"Point","coordinates":[-0.01167314313352108,51.635162353515625]},"properties":{"OrganisationCode":"F86700","OrganisationType":"GP practice","SubType":"UNKNOWN","OrganisationName":"Kingshead Medical Practice","OrganisationStatus":"Visible","IsPimsManaged":"False","Address1":"178 Kings Head Hill","Address2":"Chingford","City":"London","Postcode":"E4 7NX"}},{"type":"Feature","id":"47435","geometry":{"type":"Point","coordinates":[0.21445247530937195,51.44136047363281]},"properties":{"OrganisationCode":"G82143","OrganisationType":"GP practice","SubType":"UNKNOWN","OrganisationName":"Lowfield Medical Centre","OrganisationStatus":"Visible","IsPimsManaged":"False","Address1":"Lowfield Medical Centre","Address2":"65-67 Lowfield Street","City":"Dartford","County":"Kent","Postcode":"DA1 1HP"}},{"type":"Feature","id":"47438","geometry":{"type":"Point","coordinates":[-0.5961958169937134,53.18641662597656]},"properties":{"OrganisationCode":"C83025","OrganisationType":"GP practice","SubType":"UNKNOWN","OrganisationName":"Dr TAM Lough and Partners","OrganisationStatus":"Visible","IsPimsManaged":"False","Address1":"Richmond Medical Centre","Address2":"Moor Lane","Address3":"North Hykeham","City":"Lincoln","Postcode":"LN6 9AY"}},{"type":"Feature","id":"47441","geometry":{"type":"Point","coordinates":[0.00944953691214323,51.426170349121094]},"properties":{"OrganisationCode":"G85065","OrganisationType":"GP practice","SubType":"UNKNOWN","OrganisationName":"MOORSIDE CLINIC","OrganisationStatus":"Visible","IsPimsManaged":"False","Address1":"Downham Health & Leisure Centre","Address2":"7 - 9 Moorside Road","City":"Bromley","County":"Kent","Postcode":"BR1 5EP"}},{"type":"Feature","id":"47443","geometry":{"type":"Point","coordinates":[-1.8984800577163696,54.94631576538086]},"properties":{"OrganisationCode":"A84047","OrganisationType":"GP practice","SubType":"UNKNOWN","OrganisationName":"Branch End Surgery","OrganisationStatus":"Visible","IsPimsManaged":"False","Address1":"Main Road","City":"Stocksfield","County":"Northumberland","Postcode":"NE43 7LL"}},{"type":"Feature","id":"47448","geometry":{"type":"Point","coordinates":[-1.941012978553772,52.50428771972656]},"properties":{"OrganisationCode":"M85082","OrganisationType":"GP practice","SubType":"UNKNOWN","OrganisationName":"Handsworth Medical Practice","OrganisationStatus":"Visible","IsPimsManaged":"False","Address1":"4 Trafalgar Road","Address2":"Handsworth","City":"Birmingham","County":"West Midlands","Postcode":"B21 9NH"}},{"type":"Feature","id":"47456","geometry":{"type":"Point","coordinates":[-1.637890100479126,53.70648193359375]},"properties":{"OrganisationCode":"B85041","OrganisationType":"GP practice","SubType":"UNKNOWN","OrganisationName":"Mount Pleasant Medical Centre","OrganisationStatus":"Visible","IsPimsManaged":"False","Address1":"69 Purlwell Lane","Address3":"Mount Pleasant","City":"Batley","County":"West Yorkshire","Postcode":"WF17 7PF"}},{"type":"Feature","id":"47458","geometry":{"type":"Point","coordinates":[-2.177525520324707,53.42646408081055]},"properties":{"OrganisationCode":"P88028","OrganisationType":"GP practice","SubType":"UNKNOWN","OrganisationName":"Eastholme Surgery","OrganisationStatus":"Visible","IsPimsManaged":"False","Address1":"2 Heaton Moor Road","Address2":"Heaton Chapel","Address3":"Stockport","City":"Cheshire","Postcode":"SK4 4NT"}},{"type":"Feature","id":"47459","geometry":{"type":"Point","coordinates":[1.2858495712280273,52.62323760986328]},"properties":{"OrganisationCode":"D82008","OrganisationType":"GP practice","SubType":"UNKNOWN","OrganisationName":"St. Stephens Gate medcial Partnership","OrganisationStatus":"Visible","IsPimsManaged":"False","Address1":"55 Wessex Street","Address2":"Norwich","Postcode":"NR2 2TJ"}},{"type":"Feature","id":"47460","geometry":{"type":"Point","coordinates":[0.025873510167002678,51.60214614868164]},"properties":{"OrganisationCode":"F86680","OrganisationType":"GP practice","SubType":"UNKNOWN","OrganisationName":"Ferndale Surgery","OrganisationStatus":"Visible","IsPimsManaged":"False","Address1":"Ferndale Surgery","Address2":"76 Snakes Lane East","Address3":"Woodford Green","City":"Essex","Postcode":"IG8 9AW"}},{"type":"Feature","id":"47461","geometry":{"type":"Point","coordinates":[-1.4415788650512695,53.42978286743164]},"properties":{"OrganisationCode":"C88070","OrganisationType":"GP practice","SubType":"UNKNOWN","OrganisationName":"Shiregreen Medical Centre","OrganisationStatus":"Visible","IsPimsManaged":"False","Address1":"492 Bellhouse Road","Address2":"Shiregreen","City":"Sheffield","Postcode":"S5 0RG"}},{"type":"Feature","id":"47462","geometry":{"type":"Point","coordinates":[-1.495807409286499,53.67990493774414]},"properties":{"OrganisationCode":"B87017","OrganisationType":"GP practice","SubType":"UNKNOWN","OrganisationName":"The Almshouse Surgery","OrganisationStatus":"Visible","IsPimsManaged":"False","Address1":"Trinity Medical Centre","Address2":"Thornhill Street","Address3":"Wakefield","City":"West Yorkshire","Postcode":"WF1 1PG"}},{"type":"Feature","id":"47463","geometry":{"type":"Point","coordinates":[-1.082953691482544,50.81574630737305]},"properties":{"OrganisationCode":"J82149","OrganisationType":"GP practice","SubType":"UNKNOWN","OrganisationName":"Derby Road Surgery","OrganisationStatus":"Visible","IsPimsManaged":"False","Address1":"27-29 Derby Road","Address2":"North End","City":"Portsmouth","Postcode":"PO2 8HW"}},{"type":"Feature","id":"47464","geometry":{"type":"Point","coordinates":[-0.5381698608398438,50.805694580078125]},"properties":{"OrganisationCode":"H82066","OrganisationType":"GP practice","SubType":"UNKNOWN","OrganisationName":"Fitzalan Medical Group","OrganisationStatus":"Visible","IsPimsManaged":"False","Address1":"Fitzalan Road","Address2":"Littlehampton","Address3":"West Sussex","Postcode":"BN17 5JR"}},{"type":"Feature","id":"47465","geometry":{"type":"Point","coordinates":[0.2144959419965744,51.4422607421875]},"properties":{"OrganisationCode":"G82048","OrganisationType":"GP practice","SubType":"UNKNOWN","OrganisationName":"Horsmans Place Partnership","OrganisationStatus":"Visible","IsPimsManaged":"False","Address1":"Horsmans Place Surgery","Address2":"Instone Road","Address3":"Dartford","City":"Kent","Postcode":"DA1 2JP"}},{"type":"Feature","id":"47466","geometry":{"type":"Point","coordinates":[-2.1085987091064453,53.54339599609375]},"properties":{"OrganisationCode":"P85002","OrganisationType":"GP practice","SubType":"UNKNOWN","OrganisationName":"Drs. Lewis, Dixon & Richbell","OrganisationStatus":"Visible","IsPimsManaged":"False","Address1":"St. Mary's Medical Centre","Address2":"Rock Street","Address3":"Oldham","Postcode":"OL1 3UL"}},{"type":"Feature","id":"47467","geometry":{"type":"Point","coordinates":[-1.3865382671356201,50.938236236572266]},"properties":{"OrganisationCode":"J82001","OrganisationType":"GP practice","SubType":"UNKNOWN","OrganisationName":"Burgess Road Surgery","OrganisationStatus":"Visible","IsPimsManaged":"False","Address1":"357a Burgess Road","City":"Southampton","County":"Hampshire","Postcode":"SO16 3BD"}},{"type":"Feature","id":"47468","geometry":{"type":"Point","coordinates":[1.3822804689407349,52.81928253173828]},